yearBuilt,url,longitude,homeStatus,real estate provider,paymentPeriod,isListed,relaxed,postal_code,title,address,facts and features,currency,commute,price,latitude,city,homeType,state,bedrooms,bathrooms,area
-1,https://www.zillow.com/homedetails/Pond-View-Rd-Winhall-VT-05340/2081307255_zpid/,-72.88754,FOR_RENT,,,,False,05340,Apartment for rent,"Pond View Rd, Winhall, VT 05340","4 bds, 4.0 ba ,2600 sqft",USD,,"$4,000/mo",43.13764,Winhall,APARTMENT,VT,4,4.0,2600
1970,https://www.zillow.com/homedetails/17-Stratton-West-Rd-Winhall-VT-05340/2081745879_zpid/,-72.89681,FOR_RENT,,,,False,05340,Condo for rent,"17 Stratton West Rd, Winhall, VT 05340","3 bds, 2.0 ba ,1100 sqft",USD,,"$8,500/mo",43.135276,Winhall,CONDO,VT,3,2.0,1100
1988,https://www.zillow.com/homedetails/F6-Cobble-Ridge-Rd-Winhall-VT-05340/2082917904_zpid/,-72.863105,FOR_RENT,,,,False,05340,Condo for rent,"F6 Cobble Ridge Rd, Winhall, VT 05340","3 bds, 3.0 ba ,2420 sqft",USD,,"$27,000/mo",43.181144,Winhall,CONDO,VT,3,3.0,2420
1980,https://www.zillow.com/homedetails/12-Sap-Bucket-Rd-Winhall-VT-05340/2093945784_zpid/,-72.9151,FOR_RENT,,,,False,05340,House for rent,"12 Sap Bucket Rd, Winhall, VT 05340","4 bds, 3.0 ba ,1950 sqft",USD,,"$23,000/mo",43.1598,Winhall,SINGLE_FAMILY,VT,4,3.0,1950
,https://www.zillow.com/b/84-romaine-ave-jersey-city-nj-974GpM/,-74.068917,,,,,False,,For Rent,"84 Romaine Ave, Jersey City, NJ"," bds,  ba , sqft",,,,40.732659,,,,,,
-1,https://www.zillow.com/homedetails/237-Liberty-Ave-2R-Jersey-City-NJ-07306/2080927507_zpid/,-74.060498,FOR_RENT,,,,False,07306,Apartment for rent,"237 Liberty Ave # 2R, Jersey City, NJ 07306","2 bds, 1.0 ba ,None sqft",USD,,"$1,795/mo",40.744749,Jersey City,APARTMENT,NJ,2,1.0,
-1,https://www.zillow.com/homedetails/545-Newark-Ave-APT-4-Jersey-City-NJ-07306/2080932160_zpid/,-74.056415,FOR_RENT,,,,False,07306,Apartment for rent,"545 Newark Ave APT 4, Jersey City, NJ 07306","1 bds, 1.0 ba ,800 sqft",USD,,"$1,400/mo",40.730923,Jersey City,APARTMENT,NJ,1,1.0,800
,https://www.zillow.com/b/3-journal-square-jersey-city-nj-BMQKwn/,-74.0661,,,,,False,,3 Journal Square,"2935 John Fitzgerald Kennedy Blvd, Jersey City, NJ"," bds,  ba , sqft",,,,40.7344,,,,,,
,"https://www.zillow.com/b/205-Palisade-Ave-Jersey-City-NJ/40.736086,-74.04976_ll/",-74.04976,,,,,False,,For Rent,"205 Palisade Ave, Jersey City, NJ"," bds,  ba , sqft",,,,40.736086,,,,,,
,https://www.zillow.com/b/9-garrison-ave-jersey-city-nj-5XrS7L/,-74.070505,,,,,False,,For Rent,"9 Garrison Ave, Jersey City, NJ"," bds,  ba , sqft",,,,40.729434,,,,,,
-1,https://www.zillow.com/homedetails/122-Corbin-Ave-Jersey-City-NJ-07306/2080933908_zpid/,-74.069763,FOR_RENT,,,,False,07306,Townhouse for rent,"122 Corbin Ave, Jersey City, NJ 07306","1 bds, 1.0 ba ,None sqft",USD,,"$1,000/mo",40.73465,Jersey City,TOWNHOUSE,NJ,1,1.0,
,https://www.zillow.com/b/journal-squared-jersey-city-nj-974G9w/,-74.061541,,,,,False,,Journal Squared,"615 Pavonia Ave, Jersey City, NJ"," bds,  ba , sqft",,,,40.732578,,,,,,
-1,https://www.zillow.com/homedetails/221-Beacon-Ave-2-Jersey-City-NJ-07306/2080934473_zpid/,-74.059548,FOR_RENT,,,,False,07306,Apartment for rent,"221 Beacon Ave # 2, Jersey City, NJ 07306","4 bds, 2.0 ba ,None sqft",USD,,"$2,500/mo",40.738973,Jersey City,APARTMENT,NJ,4,2.0,
,https://www.zillow.com/b/201-saint-pauls-ave-jersey-city-nj-5Xm4Q6/,-74.060251,,,,,False,,For Rent,"201 Saint Pauls Ave, Jersey City, NJ"," bds,  ba , sqft",,,,40.736959,,,,,,
-1,https://www.zillow.com/homedetails/11-Bryant-Ave-1-Jersey-City-NJ-07306/2091577950_zpid/,-74.076021,FOR_RENT,,,,False,07306,Apartment for rent,"11 Bryant Ave # 1, Jersey City, NJ 07306","3 bds, 1.0 ba ,1250 sqft",USD,,$620/mo,40.732496,Jersey City,APARTMENT,NJ,3,1.0,1250
-1,https://www.zillow.com/homedetails/33-Dey-St-Jersey-City-NJ-07306/2080936607_zpid/,-74.066856,FOR_RENT,,,,False,07306,Apartment for rent,"33 Dey St, Jersey City, NJ 07306","1 bds, 1.0 ba ,658 sqft",USD,,"$2,205/mo",40.737696,Jersey City,APARTMENT,NJ,1,1.0,658
-1,https://www.zillow.com/homedetails/Academy-St-Jersey-City-NJ-07306/2080936824_zpid/,-74.06358,FOR_RENT,,,,False,07306,Apartment for rent,"Academy St, Jersey City, NJ 07306","1 bds, 1.0 ba ,600 sqft",USD,,"$1,475/mo",40.72772,Jersey City,APARTMENT,NJ,1,1.0,600
-1,https://www.zillow.com/homedetails/316-Hoboken-Ave-2-Jersey-City-NJ-07306/2122988541_zpid/,-74.053305,FOR_RENT,,,,False,07306,Apartment for rent,"316 Hoboken Ave # 2, Jersey City, NJ 07306","2 bds, 1.0 ba ,600 sqft",USD,,"$1,750/mo",40.732709,Jersey City,APARTMENT,NJ,2,1.0,600
,https://www.zillow.com/b/312-academy-st-jersey-city-nj-974DvW/,-74.066834,,,,,False,,For Rent,"312 Academy St, Jersey City, NJ"," bds,  ba , sqft",,,,40.730294,,,,,,
-1,https://www.zillow.com/homedetails/742-Bergen-Ave-3-Jersey-City-NJ-07306/2080940571_zpid/,-74.068296,FOR_RENT,,,,False,07306,Apartment for rent,"742 Bergen Ave # 3, Jersey City, NJ 07306","3 bds, 1.0 ba ,None sqft",USD,,"$2,300/mo",40.724932,Jersey City,APARTMENT,NJ,3,1.0,
-1,https://www.zillow.com/homedetails/239-Liberty-Ave-APT-3L-Jersey-City-NJ-07306/2108996632_zpid/,-74.060476,FOR_RENT,,,,False,07306,Apartment for rent,"239 Liberty Ave, 2 BD - 1 B BA","2 bds, 1.0 ba ,773 sqft",USD,,"$1,795/mo",40.745255,Jersey City,APARTMENT,NJ,2,1.0,773
-1,https://www.zillow.com/homedetails/55-Corbin-Ave-APT-23-Jersey-City-NJ-07306/2080946165_zpid/,-74.071743,FOR_RENT,,,,False,07306,Apartment for rent,"55 Corbin Ave APT 23, Jersey City, NJ 07306","1 bds, 1.0 ba ,None sqft",USD,,"$1,350/mo",40.732427,Jersey City,APARTMENT,NJ,1,1.0,
-1,https://www.zillow.com/homedetails/117-Magnolia-Ave-1-Jersey-City-NJ-07306/2080946660_zpid/,-74.059211,FOR_RENT,,,,False,07306,Apartment for rent,"117 Magnolia Ave # 1, Jersey City, NJ 07306","1 bds, 1.0 ba ,None sqft",USD,,"$1,725/mo",40.731148,Jersey City,APARTMENT,NJ,1,1.0,
,https://www.zillow.com/b/85-romaine-ave-jersey-city-nj-5fsGt9/,-74.069421,,,,,False,,For Rent,"85 Romaine Ave, Jersey City, NJ"," bds,  ba , sqft",,,,40.732876,,,,,,
,https://www.zillow.com/b/42-vroom-street-jersey-city-nj-5XtTgy/,-74.063382,,,,,False,,42 Vroom Street,"42 Vroom St, Jersey City, NJ"," bds,  ba , sqft",,,,40.726626,,,,,,
-1,https://www.zillow.com/homedetails/2860-John-F-Kennedy-Blvd-804-Jersey-City-NJ-07306/2080952044_zpid/,-74.065408,FOR_RENT,,,,False,07306,Apartment for rent,"2860 John F Kennedy Blvd # 804, Jersey City, NJ 07306","0 bds, 1.0 ba ,500 sqft",USD,,"$1,516/mo",40.731661,Jersey City,APARTMENT,NJ,0,1.0,500
2004,https://www.zillow.com/homedetails/9-Saint-Pauls-Ave-Jersey-City-NJ-07306/38891582_zpid/,-74.051661,FOR_RENT,,,,False,07306,Apartment for rent,"9 Saint Pauls Ave, Jersey City, NJ 07306","2 bds, 1.0 ba ,3900 sqft",USD,,"$2,000/mo",40.733502,Jersey City,APARTMENT,NJ,2,1.0,3900
,https://www.zillow.com/b/64-tuers-ave-jersey-city-nj-974GGD/,-74.065542,,,,,False,,For Rent,"64 Tuers Ave, Jersey City, NJ"," bds,  ba , sqft",,,,40.72693,,,,,,
-1,https://www.zillow.com/homedetails/319-Fairmount-Ave-APT-8-Jersey-City-NJ-07306/2080958073_zpid/,-74.070604,FOR_RENT,,,,False,07306,Apartment for rent,"319 Fairmount Ave APT 8, Jersey City, NJ 07306","2 bds, 1.0 ba ,None sqft",USD,,"$1,554/mo",40.725201,Jersey City,MULTI_FAMILY,NJ,2,1.0,
-1,https://www.zillow.com/homedetails/557-Pavonia-Ave-1-Jersey-City-NJ-07306/2084552938_zpid/,-74.058834,FOR_RENT,,,,False,07306,Apartment for rent,"557 Pavonia Ave # 1, Jersey City, NJ 07306","1 bds, 1.0 ba ,600 sqft",USD,,"$1,699/mo",40.73164,Jersey City,APARTMENT,NJ,1,1.0,600
-1,https://www.zillow.com/homedetails/John-F-Kennedy-Blvd-Jersey-City-NJ-07306/2081075751_zpid/,-74.06858,FOR_RENT,,,,False,07306,Apartment for rent,"John F Kennedy Blvd, Jersey City, NJ 07306","4 bds, 1.0 ba ,2218 sqft",USD,,"$2,695/mo",40.73023,Jersey City,APARTMENT,NJ,4,1.0,2218
-1,https://www.zillow.com/homedetails/82-Laidlaw-Ave-APT-2-Jersey-City-NJ-07306/2081145170_zpid/,-74.053234,FOR_RENT,,,,False,07306,Apartment for rent,"82 Laidlaw Ave APT 2, Jersey City, NJ 07306","1 bds, 1.0 ba ,750 sqft",USD,,"$1,050/mo",40.737379,Jersey City,APARTMENT,NJ,1,1.0,750
,https://www.zillow.com/b/195-plainfield-ave-jersey-city-nj-9W4TBn/,-74.081632,,,,,False,,For Rent,"195 Plainfield Ave, Jersey City, NJ"," bds,  ba , sqft",,,,40.72942,,,,,,
-1,https://www.zillow.com/homedetails/692-Summit-Ave-APT-2F-Jersey-City-NJ-07306/2101342639_zpid/,-74.058131,FOR_RENT,,,,False,07306,Apartment for rent,"692 Summit Ave APT 2F, Jersey City, NJ 07306","0 bds, 1.0 ba ,None sqft",USD,,"$1,300/mo",40.738563,Jersey City,APARTMENT,NJ,0,1.0,
-1,https://www.zillow.com/homedetails/135-Saint-Pauls-Ave-APT-3-Jersey-City-NJ-07306/2081018993_zpid/,-74.057092,FOR_RENT,,,,False,07306,Apartment for rent,"135 Saint Pauls Ave APT 3, Jersey City, NJ 07306","2 bds, 1.0 ba ,1000 sqft",USD,,"$1,650/mo",40.73637,Jersey City,APARTMENT,NJ,2,1.0,1000
,https://www.zillow.com/b/120-dekalb-ave-jersey-city-nj-9sbKZT/,-74.072076,,,,,False,,For Rent,"120 Dekalb Ave, Jersey City, NJ"," bds,  ba , sqft",,,,40.729828,,,,,,
,https://www.zillow.com/b/84-romaine-ave-jersey-city-nj-974GpM/,-74.069196,,,,,False,,For Rent,"84 Romaine Ave, Jersey City, NJ"," bds,  ba , sqft",,,,40.732763,,,,,,
-1,https://www.zillow.com/homedetails/677-Summit-Ave-APT-1L-Jersey-City-NJ-07306/2080967447_zpid/,-74.059073,FOR_RENT,,,,False,07306,Apartment for rent,"677 Summit Ave APT 1L, Jersey City, NJ 07306","1 bds, 1.0 ba ,528 sqft",USD,,"$1,400/mo",40.738141,Jersey City,APARTMENT,NJ,1,1.0,528
,https://www.zillow.com/b/11-van-reipen-ave-jersey-city-nj-974CFm/,-74.069387,,,,,False,,For Rent,"11 Van Reipen Avenue &, Jersey City, NJ"," bds,  ba , sqft",,,,40.7378,,,,,,
-1,https://www.zillow.com/homedetails/11-Van-Reipen-Ave-12-Jersey-City-NJ-07306/2080969376_zpid/,-74.060038,FOR_RENT,,,,False,07306,Apartment for rent,"11 Van Reipen Ave # 1&2, Jersey City, NJ 07306","3 bds, 1.0 ba ,None sqft",USD,,"$2,800/mo",40.733257,Jersey City,MULTI_FAMILY,NJ,3,1.0,
-1,https://www.zillow.com/homedetails/50-Dey-St-APT-448-Jersey-City-NJ-07306/108624400_zpid/,-74.068897,FOR_RENT,,,,False,07306,Condo for rent,"50 Dey St APT 448, Jersey City, NJ 07306","2 bds, 2.0 ba ,1281 sqft",USD,,"$3,300/mo",40.738999,Jersey City,CONDO,NJ,2,2.0,1281
,https://www.zillow.com/b/43-saint-pauls-ave-jersey-city-nj-974FSH/,-74.053099,,,,,False,,For Rent,"43 Saint Pauls Ave, Jersey City, NJ"," bds,  ba , sqft",,,,40.734262,,,,,,
-1,https://www.zillow.com/homedetails/88-Romaine-Ave-2G-Jersey-City-NJ-07306/2080973231_zpid/,-74.068861,FOR_RENT,,,,False,07306,Apartment for rent,"88 Romaine Ave # 2G, Jersey City, NJ 07306","2 bds, 1.0 ba ,None sqft",USD,,"$2,148/mo",40.732761,Jersey City,APARTMENT,NJ,2,1.0,
-1,https://www.zillow.com/homedetails/14-Dey-St-Jersey-City-NJ-07306/2080974575_zpid/,-74.067535,FOR_RENT,,,,False,07306,Apartment for rent,"14 Dey St, Jersey City, NJ 07306","2 bds, 2.0 ba ,958 sqft",USD,,"$2,895/mo",40.737917,Jersey City,APARTMENT,NJ,2,2.0,958
,https://www.zillow.com/b/1225-reserve-way-naples-fl-5Y7SNv/,-81.739016,,,,,False,,For Rent,"1225 Reserve Way, Naples, FL"," bds,  ba , sqft",,,,26.208301,,,,,,
2020,https://www.zillow.com/homedetails/475-Freeport-St-1-New-Kensington-PA-15068/2080922739_zpid/,-79.762164,FOR_RENT,,,,False,15068,Apartment for rent,"475 Freeport St # 1, New Kensington, PA 15068","1 bds, 1.0 ba ,None sqft",USD,,$668/mo,40.559113,New Kensington,APARTMENT,PA,1,1.0,
,https://www.zillow.com/b/trinity-club-apartments-trinity-fl-5XtNjC/,-82.634976,,,,,False,,Trinity Club Apartments,"10800 Torino Dr, Trinity, FL"," bds,  ba , sqft",,,,28.188623,,,,,,
2002,https://www.zillow.com/homedetails/1835-Arctic-Ct-Laredo-TX-78045/60869224_zpid/,-99.461986,FOR_RENT,,,,False,78045,House for rent,"1835 Arctic Ct, Laredo, TX 78045","3 bds, 2.0 ba ,1292 sqft",USD,,"$1,400/mo",27.601656,Laredo,SINGLE_FAMILY,TX,3,2.0,1292
1977,https://www.zillow.com/homedetails/1724-Indian-River-Dr-STE-B-Sebastian-FL-32958/2080922746_zpid/,-80.474388,FOR_RENT,,,,False,32958,Condo for rent,"1724 Indian River Dr STE B, Sebastian, FL 32958","2 bds, 1.5 ba ,None sqft",USD,,"$2,200/mo",27.828648,Sebastian,CONDO,FL,2,1.5,
1960,https://www.zillow.com/homedetails/276-Woodland-Dr-Humboldt-TN-38343/41308800_zpid/,-88.901571,FOR_RENT,,,,False,38343,House for rent,"276 Woodland Dr, Humboldt, TN 38343","3 bds, 2.0 ba ,1786 sqft",USD,,$950/mo,35.821231,Humboldt,SINGLE_FAMILY,TN,3,2.0,1786
2018,https://www.zillow.com/homedetails/106-Chard-Pvt-Ln-Spring-Hill-TN-37174/247623178_zpid/,-86.912619,FOR_RENT,,,,False,37174,House for rent,"106 Chard Pvt Ln, Spring Hill, TN 37174","2 bds, 2.5 ba ,1275 sqft",USD,,"$1,400/mo",35.766846,Spring Hill,SINGLE_FAMILY,TN,2,2.5,1275
2003,https://www.zillow.com/homedetails/357-Ashlee-Ct-Mountain-House-CA-95391/61349230_zpid/,-121.53942,FOR_RENT,,,,False,95391,House for rent,"357 Ashlee Ct, Mountain House, CA 95391","4 bds, 3.0 ba ,3500 sqft",USD,,"$3,295/mo",37.767606,Mountain House,SINGLE_FAMILY,CA,4,3.0,3500
-1,https://www.zillow.com/homedetails/Long-Spur-Littleton-CO-80127/2080922744_zpid/,-105.16542,FOR_RENT,,,,False,80127,House for rent,"Long Spur, Littleton, CO 80127","4 bds, 3.0 ba ,2385 sqft",USD,,"$2,900/mo",39.5851,Littleton,SINGLE_FAMILY,CO,4,3.0,2385
1887,https://www.zillow.com/homedetails/101-Fairground-Ave-Dayton-OH-45409/35082296_zpid/,-84.184532,FOR_RENT,,,,False,45409,House for rent,"101 Fairground Ave, Dayton, OH 45409","3 bds, 3.0 ba ,1696 sqft",USD,,"$3,000/mo",39.742635,Dayton,SINGLE_FAMILY,OH,3,3.0,1696
1972,https://www.zillow.com/homedetails/5110-Woodmark-Dr-Fort-Wayne-IN-46815/73172017_zpid/,-85.075791,FOR_RENT,,,,False,46815,Apartment for rent,"5110 Woodmark Dr, Fort Wayne, IN 46815","2 bds, 1.0 ba ,924 sqft",USD,,$825/mo,41.109453,Fort Wayne,APARTMENT,IN,2,1.0,924
,https://www.zillow.com/b/235-w-van-buren-street-chicago-il-Ck2r/,-87.634643,,,,,False,,235 W Van Buren Street,"235 W Van Buren St, Chicago, IL"," bds,  ba , sqft",,,,41.87659,,,,,,
-1,https://www.zillow.com/homedetails/Gordon-St-Brighton-MA-02135/2080922741_zpid/,-71.13974,FOR_RENT,,,,False,02135,Apartment for rent,"Gordon St, Brighton, MA 02135","4 bds, 2.0 ba ,None sqft",USD,,"$3,000/mo",42.34898,Brighton,APARTMENT,MA,4,2.0,
1914,https://www.zillow.com/homedetails/1217-Grand-Ave-Saint-Paul-MN-55105/2041749_zpid/,-93.151463,FOR_RENT,,,,False,55105,Apartment for rent,"1217 Grand Ave, Saint Paul, MN 55105","2 bds, 1.0 ba ,1200 sqft",USD,,"$1,100/mo",44.94034,Saint Paul,APARTMENT,MN,2,1.0,1200
1972,https://www.zillow.com/homedetails/3622-159th-Street-Ct-E-Tacoma-WA-98446/2094293017_zpid/,-122.379664,FOR_RENT,,,,False,98446,Townhouse for rent,"3622 159th Street Ct E, Tacoma, WA 98446","2 bds, 1.0 ba ,950 sqft",USD,,"$1,395/mo",47.11225,Tacoma,TOWNHOUSE,WA,2,1.0,950
,https://www.zillow.com/b/stillwater-palms-palm-harbor-fl-5Xhz79/,-82.742607,,,,,False,,Stillwater Palms,"2350 Cypress Pond Rd, Palm Harbor, FL"," bds,  ba , sqft",,,,28.114096,,,,,,
,https://www.zillow.com/b/waterwall-place-houston-tx-5Z7HpX/,-95.462237,,,,,False,,WaterWall Place,"2801 Waterwall Dr, Houston, TX"," bds,  ba , sqft",,,,29.736026,,,,,,
1977,https://www.zillow.com/homedetails/370-S-Freeman-Rd-Tucson-AZ-85748/8586924_zpid/,-110.739154,FOR_RENT,,,,False,85748,House for rent,"370 S Freeman Rd, Tucson, AZ 85748","4 bds, 4.0 ba ,2737 sqft",USD,,"$3,250/mo",32.216647,Tucson,SINGLE_FAMILY,AZ,4,4.0,2737
2012,https://www.zillow.com/homedetails/615-E-Weber-Dr-UNIT-2033-Tempe-AZ-85281/95151473_zpid/,-111.930356,FOR_RENT,,,,False,85281,Apartment for rent,"Camden Sotelo, Sable","2 bds, 2.0 ba ,1212 sqft",USD,,"$1,609/mo",33.442144,Tempe,APARTMENT,AZ,2,2.0,1212
1986,https://www.zillow.com/homedetails/24317-Bridle-Trail-Rd-A-Hidden-Hills-CA-91302/2080922747_zpid/,-118.658368,FOR_RENT,,,,False,91302,Condo for rent,"24317 Bridle Trail Rd # A, Hidden Hills, CA 91302","1 bds, 1.0 ba ,700 sqft",USD,,"$3,350/mo",34.161172,Hidden Hills,CONDO,CA,1,1.0,700
,https://www.zillow.com/b/950-7-hills-drive-henderson-nv-5XjzFB/,-115.120535,,,,,False,,950 7 Hills Drive,"950 Seven Hills Dr, Henderson, NV"," bds,  ba , sqft",,,,35.994903,,,,,,
1993,https://www.zillow.com/homedetails/102-Comstock-Dr-Colonial-Heights-VA-23834/79093627_zpid/,-77.368953,FOR_RENT,,,,False,23834,House for rent,"102 Comstock Dr, Colonial Heights, VA 23834","5 bds, 4.5 ba ,3200 sqft",USD,,"$2,250/mo",37.287404,Colonial Heights,SINGLE_FAMILY,VA,5,4.5,3200
,https://www.zillow.com/b/park-at-pentagon-row-arlington-va-5Xhv6m/,-77.060322,,,,,False,,Park at Pentagon Row,"801 15th St S, Arlington, VA"," bds,  ba , sqft",,,,38.861042,,,,,,
,https://www.zillow.com/b/the-elms-at-stoney-run-village-hanover-md-5XhvPP/,-76.725497,,,,,False,,The Elms at Stoney Run Village,"7581 Stoney Run Dr, Hanover, MD"," bds,  ba , sqft",,,,39.15023,,,,,,
-1,https://www.zillow.com/homedetails/6155-60th-Pl-Maspeth-NY-11378/2080922750_zpid/,-73.905143,FOR_RENT,,,,False,11378,Apartment for rent,"6155 60th Pl, Maspeth, NY 11378","3 bds, 1.0 ba ,1375 sqft",USD,,"$2,650/mo",40.719532,Maspeth,APARTMENT,NY,3,1.0,1375
1959,https://www.zillow.com/homedetails/17-Hope-St-4C-Stamford-CT-06906/177228353_zpid/,-73.526267,FOR_RENT,,,,False,06906,Condo for rent,"17 Hope St # 4C, Stamford, CT 06906","1 bds, 1.0 ba ,885 sqft",USD,,"$1,795/mo",41.06132,Stamford,CONDO,CT,1,1.0,885
,https://www.zillow.com/b/33-west-davie-fl-5gDsHK/,-80.223647,,,,,False,,33 West,"6300 SW 24th Pl, Davie, FL"," bds,  ba , sqft",,,,26.089979,,,,,,
,https://www.zillow.com/b/camden-woodson-park-houston-tx-5Xhs4X/,-95.201941,,,,,False,,Camden Woodson Park,"14633 Woodson Park Dr, Houston, TX"," bds,  ba , sqft",,,,29.930224,,,,,,
,https://www.zillow.com/b/camden-creekstone-atlanta-ga-5XhtTN/,-84.307823,,,,,False,,Camden Creekstone,"1945 Savoy Dr, Atlanta, GA"," bds,  ba , sqft",,,,33.919697,,,,,,
1970,https://www.zillow.com/homedetails/5285-Double-Branches-Dr-Cumming-GA-30040/14619818_zpid/,-84.211677,FOR_RENT,,,,False,30040,House for rent,"5285 Double Branches Dr, Cumming, GA 30040","3 bds, 2.0 ba ,1344 sqft",USD,,"$1,600/mo",34.137886,Cumming,SINGLE_FAMILY,GA,3,2.0,1344
,https://www.zillow.com/b/jamboree-rancho-cucamonga-ca-5XjPfc/,-117.565845,,,,,False,,Jamboree,"10950 Church St, Rancho Cucamonga, CA"," bds,  ba , sqft",,,,34.111071,,,,,,
,https://www.zillow.com/b/homecoming-at-terra-vista-rancho-cucamonga-ca-5XjxXF/,-117.549636,,,,,False,,Homecoming At Terra Vista,"11660 Church St, Rancho Cucamonga, CA"," bds,  ba , sqft",,,,34.112636,,,,,,
2017,https://www.zillow.com/homedetails/1595-Campton-Rd-Inman-SC-29349/11772402_zpid/,-82.056099,FOR_RENT,,,,False,29349,House for rent,"1595 Campton Rd, Inman, SC 29349","3 bds, 2.0 ba ,1846 sqft",USD,,$975/mo,35.02938,Inman,SINGLE_FAMILY,SC,3,2.0,1846
,https://www.zillow.com/b/camden-reunion-park-apex-nc-5Xhyfy/,-78.80423,,,,,False,,Camden Reunion Park,"100 Reunion Park Dr, Apex, NC"," bds,  ba , sqft",,,,35.67898,,,,,,
,https://www.zillow.com/b/revolve-at-one-fifteen-overland-park-ks-BL4FDT/,-94.65993,,,,,False,,Revolve at One Fifteen,"11450 Lamar Ave, Overland Park, KS"," bds,  ba , sqft",,,,38.924444,,,,,,
,"https://www.zillow.com/b/3085-Brighton-13th-St-Brooklyn-NY/40.578222,-73.956457_ll/",-73.956457,,,,,False,,For Rent,"3085 Brighton 13th St, Brooklyn, NY"," bds,  ba , sqft",,,,40.578222,,,,,,
-1,https://www.zillow.com/homedetails/217th-St-Bayside-NY-11361/2080922753_zpid/,-73.7671,FOR_RENT,,,,False,11361,House for rent,"217th St, Bayside, NY 11361","0 bds, 1.0 ba ,550 sqft",USD,,"$1,250/mo",40.76907,Bayside,SINGLE_FAMILY,NY,0,1.0,550
,https://www.zillow.com/b/the-apartments-at-windbrooke-crossing-buffalo-grove-il-5XjN74/,-87.945982,,,,,False,,The Apartments at Windbrooke Crossing,"1160 Windbrooke Dr, Buffalo Grove, IL"," bds,  ba , sqft",,,,42.172651,,,,,,
,https://www.zillow.com/b/camden-san-marcos-scottsdale-az-5XhyVx/,-111.876158,,,,,False,,Camden San Marcos,"9595 E Thunderbird Rd, Scottsdale, AZ"," bds,  ba , sqft",,,,33.610574,,,,,,
,https://www.zillow.com/b/watermark-at-east-cobb-by-cortland-marietta-ga-5Xhtby/,-84.496408,,,,,False,,Watermark At East Cobb by Cortland,"2000 E Lake Pkwy, Marietta, GA"," bds,  ba , sqft",,,,33.965799,,,,,,
,https://www.zillow.com/b/ava-high-line-new-york-ny-4MH7/,-74.002588,,,,,False,,AVA High Line,"525 W 28th St, New York, NY"," bds,  ba , sqft",,,,40.751283,,,,,,
,https://www.zillow.com/b/800-sixth-apartments-new-york-ny-5Z5Nst/,-73.990859,,,,,False,,800 Sixth Apartments,"800 6th Ave, New York, NY"," bds,  ba , sqft",,,,40.745573,,,,,,
,https://www.zillow.com/b/avalon-west-chelsea-new-york-ny-26W5/,-74.00446,,,,,False,,Avalon West Chelsea,"282 11th Ave, New York, NY"," bds,  ba , sqft",,,,40.7521,,,,,,
-1,https://www.zillow.com/homedetails/247-W-26th-St-APT-5B-New-York-NY-10001/2080926690_zpid/,-73.996217,FOR_RENT,,,,False,10001,Apartment for rent,"247 W 26th St APT 5B, New York, NY 10001","1 bds, 1.0 ba ,500 sqft",USD,,"$2,500/mo",40.747067,New York,MULTI_FAMILY,NY,1,1.0,500
,https://www.zillow.com/b/435-w-31st-st-new-york-ny-B73Y66/,-73.99859,,,,,False,,For Rent,"435 W 31st St, New York, NY"," bds,  ba , sqft",,,,40.752139,,,,,,
,https://www.zillow.com/b/312-11th-ave-new-york-ny-26Wx/,-74.003973,,,,,False,,For Rent,"312 11th Ave, New York, NY"," bds,  ba , sqft",,,,40.75277,,,,,,
,https://www.zillow.com/b/777-6th-avenue-manhattan-ny-5Z6fsf/,-73.991354,,,,,False,,777 6th Avenue,"777 6th Ave, New York, NY"," bds,  ba , sqft",,,,40.744877,,,,,,
,https://www.zillow.com/b/50-w-34th-st-new-york-ny-9gfDJP/,-73.986255,,,,,False,,For Rent,"50 W 34th St, New York, NY"," bds,  ba , sqft",,,,40.748986,,,,,,
,https://www.zillow.com/b/beatrice-manhattan-ny-5XY24b/,-73.990264,,,,,False,,Beatrice,"105 W 29th St, New York, NY"," bds,  ba , sqft",,,,40.746899,,,,,,
-1,https://www.zillow.com/homedetails/358-W-30th-St-APT-2B-New-York-NY-10001/2086529899_zpid/,-73.997605,FOR_RENT,,,,False,10001,Apartment for rent,"358 W 30th St APT 2B, New York, NY 10001","0 bds, 1.0 ba ,None sqft",USD,,"$2,350/mo",40.750397,New York,MULTI_FAMILY,NY,0,1.0,
,https://www.zillow.com/b/315-w-29th-st-new-york-ny-26tm/,-73.996513,,,,,False,,For Rent,"315 W 29th St, New York, NY"," bds,  ba , sqft",,,,40.749621,,,,,,
-1,https://www.zillow.com/homedetails/420-W-25th-St-APT-7K-New-York-NY-10001/89335228_zpid/,-74.001715,FOR_RENT,,,,False,10001,Apartment for rent,"420 W 25th St APT 7K, New York, NY 10001","1 bds, 1.0 ba ,893 sqft",USD,,"$5,900/mo",40.748087,New York,MULTI_FAMILY,NY,1,1.0,893
,https://www.zillow.com/b/chelsea-towers-new-york-ny-27Pj/,-73.991664,,,,,False,,Chelsea Towers,"100 W 26th St, New York, NY"," bds,  ba , sqft",,,,40.744749,,,,,,
,https://www.zillow.com/b/15-hudson-yards-new-york-ny-9qJ7gb/,-73.9883,,,,,False,,For Rent,"15 Hudson Yards, New York, NY"," bds,  ba , sqft",,,,40.7507,,,,,,
,https://www.zillow.com/b/776-6th-ave-new-york-ny-9gq5Q2/,-73.991377,,,,,False,,For Rent,"776 6th Ave, New York, NY"," bds,  ba , sqft",,,,40.744844,,,,,,
,https://www.zillow.com/b/315-7th-ave-new-york-ny-4Nwq/,-73.993232,,,,,False,,For Rent,"315 7th Ave, New York, NY"," bds,  ba , sqft",,,,40.746971,,,,,,
,https://www.zillow.com/b/221-w-29th-st-new-york-ny-9n4sDL/,-73.993712,,,,,False,,For Rent,"221 W 29th St, New York, NY"," bds,  ba , sqft",,,,40.748438,,,,,,
,https://www.zillow.com/b/360-w-34th-st-new-york-ny-65cFZ9/,-73.995237,,,,,False,,For Rent,"360 W 34th St, New York, NY"," bds,  ba , sqft",,,,40.752783,,,,,,
,https://www.zillow.com/b/100-w-31st-st-new-york-ny-27Sq/,-73.989412,,,,,False,,For Rent,"100 W 31st St, New York, NY"," bds,  ba , sqft",,,,40.747842,,,,,,
-1,https://www.zillow.com/homedetails/323-W-30th-St-APT-D4-New-York-NY-10001/2110939361_zpid/,-73.99631,FOR_RENT,,,,False,10001,Apartment for rent,"323 W 30th St APT D4, New York, NY 10001","1 bds, 1.0 ba ,600 sqft",USD,,"$2,380/mo",40.750326,New York,MULTI_FAMILY,NY,1,1.0,600
,https://www.zillow.com/b/9-w-31st-st-new-york-ny-27jc/,-73.986674,,,,,False,,For Rent,"9 W 31st St, New York, NY"," bds,  ba , sqft",,,,40.747088,,,,,,
,https://www.zillow.com/b/507-w-28th-st-new-york-ny-9jMd9f/,-74.002129,,,,,False,,For Rent,"507 W 28th St, New York, NY"," bds,  ba , sqft",,,,40.75109,,,,,,
,https://www.zillow.com/b/885-6th-ave-new-york-ny-5Z5Nrz/,-73.98912,,,,,False,,For Rent,"885 6th Ave, New York, NY"," bds,  ba , sqft",,,,40.748239,,,,,,
2016,https://www.zillow.com/homedetails/50-W-30th-St-13C-New-York-NY-10001/300195880_zpid/,-73.98938,FOR_RENT,,,,False,10001,Apartment for rent,"50 W 30th St # 13C, New York, NY 10001","1 bds, 1.0 ba ,679 sqft",USD,,"$4,650/mo",40.746995,New York,MULTI_FAMILY,NY,1,1.0,679
-1,https://www.zillow.com/homedetails/42-W-33rd-St-APT-24E-New-York-NY-10001/2081019051_zpid/,-73.987122,FOR_RENT,,,,False,10001,Apartment for rent,"42 W 33rd St APT 24E, New York, NY 10001","0 bds, 1.0 ba ,None sqft",USD,,"$4,054/mo",40.748412,New York,MULTI_FAMILY,NY,0,1.0,
,https://www.zillow.com/b/303-10th-ave-new-york-ny-26Vt/,-74.002376,,,,,False,,For Rent,"303 10th Ave, New York, NY"," bds,  ba , sqft",,,,40.75071,,,,,,
-1,https://www.zillow.com/homedetails/440-W-34th-St-APT-9C-New-York-NY-10001/2081030412_zpid/,-73.997986,FOR_RENT,,,,False,10001,Apartment for rent,"440 W 34th St APT 9C, New York, NY 10001","2 bds, 1.0 ba ,None sqft",USD,,"$4,250/mo",40.753795,New York,MULTI_FAMILY,NY,2,1.0,
,https://www.zillow.com/b/the-epic-new-york-ny-6QjG/,-73.990137,,,,,False,,The Epic,"125 W 31st St, New York, NY"," bds,  ba , sqft",,,,40.748723,,,,,,
-1,https://www.zillow.com/homedetails/505-W-29th-St-27C-New-York-NY-10001/2082140409_zpid/,-74.001466,FOR_RENT,,,,False,10001,Apartment for rent,"505 W 29th St # 27C, New York, NY 10001","2 bds, 2.0 ba ,None sqft",USD,,"$7,995/mo",40.751615,New York,MULTI_FAMILY,NY,2,2.0,
-1,https://www.zillow.com/homedetails/412-W-25th-St-APT-4A-New-York-NY-10001/2096925090_zpid/,-74.001319,FOR_RENT,,,,False,10001,Apartment for rent,"412 W 25th St APT 4A, New York, NY 10001","2 bds, 1.0 ba ,None sqft",USD,,"$3,600/mo",40.74792,New York,MULTI_FAMILY,NY,2,1.0,
1910,https://www.zillow.com/homedetails/1182-Broadway-APT-6B-New-York-NY-10001/2102252058_zpid/,-73.988384,FOR_RENT,,,,False,10001,Apartment for rent,"1182 Broadway APT 6B, New York, NY 10001","1 bds, 1.0 ba ,1009 sqft",USD,,"$6,495/mo",40.745475,New York,MULTI_FAMILY,NY,1,1.0,1009
,https://www.zillow.com/b/144-w-27th-st-new-york-ny-6V68/,-73.992945,,,,,False,,For Rent,"144 W 27th St, New York, NY"," bds,  ba , sqft",,,,40.746009,,,,,,
-1,https://www.zillow.com/homedetails/442-10th-Ave-APT-4RN-New-York-NY-10001/2126548003_zpid/,-73.998512,FOR_RENT,,,,False,10001,Apartment for rent,"442 10th Ave APT 4RN, New York, NY 10001","1 bds, 1.0 ba ,None sqft",USD,,"$2,850/mo",40.754904,New York,MULTI_FAMILY,NY,1,1.0,
,https://www.zillow.com/b/15-hudson-yards-new-york-ny-9qJ7gb/,-73.997019,,,,,False,,15 Hudson Yards,"15 Hudson Yards, New York, NY"," bds,  ba , sqft",,,,40.750245,,,,,,
-1,https://www.zillow.com/homedetails/154-W-27th-St-FRNT-2-New-York-NY-10001/2081071235_zpid/,-73.993124,FOR_RENT,,,,False,10001,Apartment for rent,"154 W 27th St FRNT 2, New York, NY 10001","2 bds, 2.0 ba ,1800 sqft",USD,,"$6,869/mo",40.746085,New York,MULTI_FAMILY,NY,2,2.0,1800
-1,https://www.zillow.com/homedetails/100-W-31st-St-APT-18H-New-York-NY-10001/2081071216_zpid/,-73.989217,FOR_RENT,,,,False,10001,Apartment for rent,"100 W 31st St APT 18H, New York, NY 10001","1 bds, 1.0 ba ,None sqft",USD,,"$4,290/mo",40.747915,New York,MULTI_FAMILY,NY,1,1.0,
,https://www.zillow.com/b/252-7th-ave-new-york-ny-5Xjb89/,-73.995482,,,,,False,,For Rent,"252 7th Ave, New York, NY"," bds,  ba , sqft",,,,40.745311,,,,,,
,https://www.zillow.com/b/261-w-28th-st-new-york-ny-27CY/,-73.995775,,,,,False,,For Rent,"261 W 28th St, New York, NY"," bds,  ba , sqft",,,,40.748452,,,,,,
,https://www.zillow.com/b/the-capitol-new-york-ny-9gq5Q2/,-73.9978,,,,,False,,The Capitol,"776 6th Ave, New York, NY"," bds,  ba , sqft",,,,40.7509,,,,,,
,https://www.zillow.com/b/315-w-33rd-st-new-york-ny-5Xj4Kc/,-73.994614,,,,,False,,For Rent,"315 W 33rd St, New York, NY"," bds,  ba , sqft",,,,40.752262,,,,,,
-1,https://www.zillow.com/homedetails/179-Orchard-St-APT-12-New-York-NY-10002/2112383962_zpid/,-73.988573,FOR_RENT,,,,False,10002,Apartment for rent,"179 Orchard St APT 12, New York, NY 10002","1 bds, 1.0 ba ,600 sqft",USD,,"$2,650/mo",40.721879,New York,MULTI_FAMILY,NY,1,1.0,600
-1,https://www.zillow.com/homedetails/127-Stanton-St-APT-7-New-York-NY-10002/2115129420_zpid/,-73.986706,FOR_RENT,,,,False,10002,Apartment for rent,"127 Stanton St APT 7, New York, NY 10002","1 bds, 1.0 ba ,800 sqft",USD,,"$2,435/mo",40.720726,New York,MULTI_FAMILY,NY,1,1.0,800
-1,https://www.zillow.com/homedetails/43-Clinton-St-FRNT-2-New-York-NY-10002/2103207618_zpid/,-73.984904,FOR_RENT,,,,False,10002,Apartment for rent,"43 Clinton St FRNT 2, New York, NY 10002","1 bds, 1.0 ba ,None sqft",USD,,"$2,550/mo",40.719956,New York,MULTI_FAMILY,NY,1,1.0,
,https://www.zillow.com/b/118-orchard-st-new-york-ny-5YHPdb/,-73.989559,,,,,False,,For Rent,"118 Orchard St, New York, NY"," bds,  ba , sqft",,,,40.719425,,,,,,
,https://www.zillow.com/b/the-ludlow-new-york-ny-23sY/,-73.987173,,,,,False,,The Ludlow,"188 Ludlow St, New York, NY"," bds,  ba , sqft",,,,40.722015,,,,,,
-1,https://www.zillow.com/homedetails/124-Allen-St-APT-5B-New-York-NY-10002/2109481329_zpid/,-73.989563,FOR_RENT,,,,False,10002,Apartment for rent,"124 Allen St APT 5B, New York, NY 10002","1 bds, 1.0 ba ,800 sqft",USD,,"$3,700/mo",40.720179,New York,MULTI_FAMILY,NY,1,1.0,800
-1,https://www.zillow.com/homedetails/86-Stanton-St-APT-2-New-York-NY-10002/2108418903_zpid/,-73.988616,FOR_RENT,,,,False,10002,Apartment for rent,"86 Stanton St APT 2, New York, NY 10002","2 bds, 1.0 ba ,None sqft",USD,,"$3,650/mo",40.721629,New York,MULTI_FAMILY,NY,2,1.0,
,https://www.zillow.com/b/252-south-st-new-york-ny-9pSKPZ/,-73.990468,,,,,False,,For Rent,"252 South St, Manhattan, NY"," bds,  ba , sqft",,,,40.710029,,,,,,
,"https://www.zillow.com/b/One-Manhattan-Square-Manhattan-NY/40.710456,-73.991235_ll/",-73.991235,,,,,False,,One Manhattan Square,"252 South St, Manhattan, NY"," bds,  ba , sqft",,,,40.710456,,,,,,
,https://www.zillow.com/b/331-e-houston-st-new-york-ny-23HL/,-73.982592,,,,,False,,For Rent,"331 E Houston St, New York, NY"," bds,  ba , sqft",,,,40.720767,,,,,,
,https://www.zillow.com/b/205-allen-st-new-york-ny-5VTF/,-73.989272,,,,,False,,For Rent,"205 Allen St, New York, NY"," bds,  ba , sqft",,,,40.721997,,,,,,
-1,https://www.zillow.com/homedetails/15-Essex-St-APT-11-New-York-NY-10002/2107843767_zpid/,-73.990119,FOR_RENT,,,,False,10002,Apartment for rent,"15 Essex St APT 11, New York, NY 10002","2 bds, 1.0 ba ,None sqft",USD,,"$3,200/mo",40.715211,New York,MULTI_FAMILY,NY,2,1.0,
,https://www.zillow.com/b/250-east-houston-street-new-york-ny-5XjY7H/,-73.98491,,,,,False,,250 East Houston Street,"250 E Houston St, New York, NY"," bds,  ba , sqft",,,,40.722095,,,,,,
-1,https://www.zillow.com/homedetails/135-E-Broadway-APT-2A-New-York-NY-10002/2080992278_zpid/,-73.991617,FOR_RENT,,,,False,10002,Apartment for rent,"135 E Broadway APT 2A, New York, NY 10002","3 bds, 1.0 ba ,None sqft",USD,,"$3,450/mo",40.713728,New York,MULTI_FAMILY,NY,3,1.0,
-1,https://www.zillow.com/homedetails/23-Clinton-St-APT-2C-New-York-NY-10002/2081186174_zpid/,-73.984546,FOR_RENT,,,,False,10002,Apartment for rent,"23 Clinton St APT 2C, New York, NY 10002","0 bds, 1.0 ba ,None sqft",USD,,"$2,400/mo",40.720659,New York,MULTI_FAMILY,NY,0,1.0,
-1,https://www.zillow.com/homedetails/54-Allen-St-APT-4A-New-York-NY-10002/2106484194_zpid/,-73.99195,FOR_RENT,,,,False,10002,Apartment for rent,"54 Allen St APT 4A, New York, NY 10002","1 bds, 1.0 ba ,None sqft",USD,,"$3,250/mo",40.715499,New York,MULTI_FAMILY,NY,1,1.0,
-1,https://www.zillow.com/homedetails/163-Rivington-St-3-New-York-NY-10002/2080954850_zpid/,-73.985293,FOR_RENT,,,,False,10002,Apartment for rent,"163 Rivington St # 3, New York, NY 10002","2 bds, 1.0 ba ,None sqft",USD,,"$3,000/mo",40.718932,New York,MULTI_FAMILY,NY,2,1.0,
-1,https://www.zillow.com/homedetails/156-Allen-St-APT-17A-New-York-NY-10002/2080955971_zpid/,-73.989653,FOR_RENT,,,,False,10002,Apartment for rent,"156 Allen St APT 17A, New York, NY 10002","0 bds, 1.0 ba ,None sqft",USD,,"$2,075/mo",40.720884,New York,MULTI_FAMILY,NY,0,1.0,
-1,https://www.zillow.com/homedetails/81-Rivington-St-APT-2A-New-York-NY-10002/2118468524_zpid/,-73.989339,FOR_RENT,,,,False,10002,Apartment for rent,"81 Rivington St APT 2A, New York, NY 10002","2 bds, 1.0 ba ,None sqft",USD,,"$3,900/mo",40.720233,New York,MULTI_FAMILY,NY,2,1.0,
-1,https://www.zillow.com/homedetails/145-Attorney-St-APT-3B-New-York-NY-10002/2090454880_zpid/,-73.983744,FOR_RENT,,,,False,10002,Apartment for rent,"145 Attorney St APT 3B, New York, NY 10002","4 bds, 2.0 ba ,None sqft",USD,,"$8,095/mo",40.720156,New York,MULTI_FAMILY,NY,4,2.0,
,https://www.zillow.com/b/89-clinton-st-new-york-ny-8YyH/,-73.98554,,,,,False,,For Rent,"89 Clinton St, New York, NY"," bds,  ba , sqft",,,,40.718742,,,,,,
,https://www.zillow.com/b/91-attorney-st-new-york-ny-97QKtn/,-73.984786,,,,,False,,For Rent,"91 Attorney St, New York, NY"," bds,  ba , sqft",,,,40.71832,,,,,,
-1,https://www.zillow.com/homedetails/163-Ludlow-St-APT-2A-New-York-NY-10002/2087314114_zpid/,-73.98788,FOR_RENT,,,,False,10002,Apartment for rent,"163 Ludlow St APT 2A, New York, NY 10002","1 bds, 1.0 ba ,None sqft",USD,,"$2,495/mo",40.721522,New York,MULTI_FAMILY,NY,1,1.0,
-1,https://www.zillow.com/homedetails/158-Orchard-St-APT-3C-New-York-NY-10002/2118613551_zpid/,-73.98854,FOR_RENT,,,,False,10002,Apartment for rent,"158 Orchard St APT 3C, New York, NY 10002","0 bds, 1.0 ba ,None sqft",USD,,"$2,195/mo",40.720912,New York,MULTI_FAMILY,NY,0,1.0,
-1,https://www.zillow.com/homedetails/210-Rivington-St-2-New-York-NY-10002/2119124579_zpid/,-73.982674,FOR_RENT,,,,False,10002,Apartment for rent,"210 Rivington St # 2, New York, NY 10002","3 bds, 1.0 ba ,800 sqft",USD,,"$4,299/mo",40.71849,New York,MULTI_FAMILY,NY,3,1.0,800
-1,https://www.zillow.com/homedetails/19-Stanton-St-APT-43-New-York-NY-10002/2080972530_zpid/,-73.991948,FOR_RENT,,,,False,10002,Apartment for rent,"19 Stanton St APT 43, New York, NY 10002","3 bds, 1.0 ba ,None sqft",USD,,"$4,499/mo",40.722407,New York,MULTI_FAMILY,NY,3,1.0,
,https://www.zillow.com/b/171-suffolk-st-new-york-ny-97QGpf/,-73.985058,,,,,False,,For Rent,"171 Suffolk St, New York, NY"," bds,  ba , sqft",,,,40.720975,,,,,,
-1,https://www.zillow.com/homedetails/153-Essex-St-APT-3B-New-York-NY-10002/2112356393_zpid/,-73.987284,FOR_RENT,,,,False,10002,Apartment for rent,"153 Essex St APT 3B, New York, NY 10002","1 bds, 1.0 ba ,None sqft",USD,,"$3,575/mo",40.720864,New York,MULTI_FAMILY,NY,1,1.0,
-1,https://www.zillow.com/homedetails/57-Pitt-St-APT-7-New-York-NY-10002/2084654154_zpid/,-73.983111,FOR_RENT,,,,False,10002,Apartment for rent,"57 Pitt St APT 7, New York, NY 10002","2 bds, 1.0 ba ,789 sqft",USD,,"$2,850/mo",40.717774,New York,MULTI_FAMILY,NY,2,1.0,789
,https://www.zillow.com/b/29-clinton-st-new-york-ny-97QJ8f/,-73.984527,,,,,False,,For Rent,"29 Clinton St, New York, NY"," bds,  ba , sqft",,,,40.720508,,,,,,
-1,https://www.zillow.com/homedetails/95-Orchard-St-APT-10-New-York-NY-10002/2101064602_zpid/,-73.990312,FOR_RENT,,,,False,10002,Apartment for rent,"95 Orchard St APT 10, New York, NY 10002","0 bds, 1.0 ba ,450 sqft",USD,,"$2,250/mo",40.718481,New York,MULTI_FAMILY,NY,0,1.0,450
-1,https://www.zillow.com/homedetails/198-Rivington-St-5C-New-York-NY-10002/2088023059_zpid/,-73.984346,FOR_RENT,,,,False,10002,Apartment for rent,"198 Rivington St # 5C, New York, NY 10002","4 bds, 1.0 ba ,None sqft",USD,,"$6,400/mo",40.719011,New York,MULTI_FAMILY,NY,4,1.0,
,https://www.zillow.com/b/196-stanton-st-new-york-ny-5XjM8P/,-73.983029,,,,,False,,For Rent,"196 Stanton St, New York, NY"," bds,  ba , sqft",,,,40.720009,,,,,,
-1,https://www.zillow.com/homedetails/162-Orchard-St-APT-2A-New-York-NY-10002/2127422766_zpid/,-73.988476,FOR_RENT,,,,False,10002,Apartment for rent,"162 Orchard St APT 2A, New York, NY 10002","2 bds, 1.0 ba ,None sqft",USD,,"$4,000/mo",40.721039,New York,MULTI_FAMILY,NY,2,1.0,
-1,https://www.zillow.com/homedetails/78-Rivington-St-APT-5C-New-York-NY-10002/2116801237_zpid/,-73.989291,FOR_RENT,,,,False,10002,Apartment for rent,"78 Rivington St APT 5C, New York, NY 10002","2 bds, 1.0 ba ,None sqft",USD,,"$4,000/mo",40.720481,New York,MULTI_FAMILY,NY,2,1.0,
,https://www.zillow.com/b/125-delancey-st-new-york-ny-97QFxg/,-73.987751,,,,,False,,For Rent,"125 Delancey St, New York, NY"," bds,  ba , sqft",,,,40.71834,,,,,,
-1,https://www.zillow.com/homedetails/107-Eldridge-St-APT-2C-New-York-NY-10002/2092420663_zpid/,-73.992222,FOR_RENT,,,,False,10002,Apartment for rent,"107 Eldridge St APT 2C, New York, NY 10002","0 bds, 1.0 ba ,None sqft",USD,,"$2,150/mo",40.718031,New York,MULTI_FAMILY,NY,0,1.0,
-1,https://www.zillow.com/homedetails/125-Delancey-St-APT-1807A-New-York-NY-10002/2080999024_zpid/,-73.98781,FOR_RENT,,,,False,10002,Apartment for rent,"125 Delancey St APT 1807A, New York, NY 10002","1 bds, 2.0 ba ,None sqft",USD,,"$4,945/mo",40.718316,New York,MULTI_FAMILY,NY,1,2.0,
-1,https://www.zillow.com/homedetails/199-Bowery-APT-5A-New-York-NY-10002/80005958_zpid/,-73.993259,FOR_RENT,,,,False,10002,Apartment for rent,"199 Bowery APT 5A, New York, NY 10002","2 bds, 2.0 ba ,900 sqft",USD,,"$6,395/mo",40.721038,New York,MULTI_FAMILY,NY,2,2.0,900
-1,https://www.zillow.com/homedetails/19-Eldridge-St-APT-5-New-York-NY-10002/2092139756_zpid/,-73.993839,FOR_RENT,,,,False,10002,Apartment for rent,"19 Eldridge St APT 5, New York, NY 10002","1 bds, 1.0 ba ,None sqft",USD,,"$2,750/mo",40.715045,New York,MULTI_FAMILY,NY,1,1.0,
-1,https://www.zillow.com/homedetails/179-Orchard-St-APT-12-New-York-NY-10002/2112383962_zpid/,-73.988573,FOR_RENT,,,,False,10002,Apartment for rent,"179 Orchard St APT 12, New York, NY 10002","1 bds, 1.0 ba ,600 sqft",USD,,"$2,650/mo",40.721879,New York,MULTI_FAMILY,NY,1,1.0,600
-1,https://www.zillow.com/homedetails/127-Stanton-St-APT-7-New-York-NY-10002/2115129420_zpid/,-73.986706,FOR_RENT,,,,False,10002,Apartment for rent,"127 Stanton St APT 7, New York, NY 10002","1 bds, 1.0 ba ,800 sqft",USD,,"$2,435/mo",40.720726,New York,MULTI_FAMILY,NY,1,1.0,800
-1,https://www.zillow.com/homedetails/43-Clinton-St-FRNT-2-New-York-NY-10002/2103207618_zpid/,-73.984904,FOR_RENT,,,,False,10002,Apartment for rent,"43 Clinton St FRNT 2, New York, NY 10002","1 bds, 1.0 ba ,None sqft",USD,,"$2,550/mo",40.719956,New York,MULTI_FAMILY,NY,1,1.0,
,https://www.zillow.com/b/118-orchard-st-new-york-ny-5YHPdb/,-73.989559,,,,,False,,For Rent,"118 Orchard St, New York, NY"," bds,  ba , sqft",,,,40.719425,,,,,,
,https://www.zillow.com/b/the-ludlow-new-york-ny-23sY/,-73.987173,,,,,False,,The Ludlow,"188 Ludlow St, New York, NY"," bds,  ba , sqft",,,,40.722015,,,,,,
-1,https://www.zillow.com/homedetails/124-Allen-St-APT-5B-New-York-NY-10002/2109481329_zpid/,-73.989563,FOR_RENT,,,,False,10002,Apartment for rent,"124 Allen St APT 5B, New York, NY 10002","1 bds, 1.0 ba ,800 sqft",USD,,"$3,700/mo",40.720179,New York,MULTI_FAMILY,NY,1,1.0,800
,https://www.zillow.com/b/252-south-st-new-york-ny-9pSKPZ/,-73.990468,,,,,False,,For Rent,"252 South St, Manhattan, NY"," bds,  ba , sqft",,,,40.710029,,,,,,
-1,https://www.zillow.com/homedetails/86-Stanton-St-APT-2-New-York-NY-10002/2108418903_zpid/,-73.988616,FOR_RENT,,,,False,10002,Apartment for rent,"86 Stanton St APT 2, New York, NY 10002","2 bds, 1.0 ba ,None sqft",USD,,"$3,650/mo",40.721629,New York,MULTI_FAMILY,NY,2,1.0,
,"https://www.zillow.com/b/One-Manhattan-Square-Manhattan-NY/40.710456,-73.991235_ll/",-73.991235,,,,,False,,One Manhattan Square,"252 South St, Manhattan, NY"," bds,  ba , sqft",,,,40.710456,,,,,,
,https://www.zillow.com/b/331-e-houston-st-new-york-ny-23HL/,-73.982592,,,,,False,,For Rent,"331 E Houston St, New York, NY"," bds,  ba , sqft",,,,40.720767,,,,,,
,https://www.zillow.com/b/205-allen-st-new-york-ny-5VTF/,-73.989272,,,,,False,,For Rent,"205 Allen St, New York, NY"," bds,  ba , sqft",,,,40.721997,,,,,,
-1,https://www.zillow.com/homedetails/15-Essex-St-APT-11-New-York-NY-10002/2107843767_zpid/,-73.990119,FOR_RENT,,,,False,10002,Apartment for rent,"15 Essex St APT 11, New York, NY 10002","2 bds, 1.0 ba ,None sqft",USD,,"$3,200/mo",40.715211,New York,MULTI_FAMILY,NY,2,1.0,
,https://www.zillow.com/b/250-east-houston-street-new-york-ny-5XjY7H/,-73.98491,,,,,False,,250 East Houston Street,"250 E Houston St, New York, NY"," bds,  ba , sqft",,,,40.722095,,,,,,
-1,https://www.zillow.com/homedetails/135-E-Broadway-APT-2A-New-York-NY-10002/2080992278_zpid/,-73.991617,FOR_RENT,,,,False,10002,Apartment for rent,"135 E Broadway APT 2A, New York, NY 10002","3 bds, 1.0 ba ,None sqft",USD,,"$3,450/mo",40.713728,New York,MULTI_FAMILY,NY,3,1.0,
-1,https://www.zillow.com/homedetails/23-Clinton-St-APT-2C-New-York-NY-10002/2081186174_zpid/,-73.984546,FOR_RENT,,,,False,10002,Apartment for rent,"23 Clinton St APT 2C, New York, NY 10002","0 bds, 1.0 ba ,None sqft",USD,,"$2,400/mo",40.720659,New York,MULTI_FAMILY,NY,0,1.0,
-1,https://www.zillow.com/homedetails/54-Allen-St-APT-4A-New-York-NY-10002/2106484194_zpid/,-73.99195,FOR_RENT,,,,False,10002,Apartment for rent,"54 Allen St APT 4A, New York, NY 10002","1 bds, 1.0 ba ,None sqft",USD,,"$3,250/mo",40.715499,New York,MULTI_FAMILY,NY,1,1.0,
-1,https://www.zillow.com/homedetails/163-Rivington-St-3-New-York-NY-10002/2080954850_zpid/,-73.985293,FOR_RENT,,,,False,10002,Apartment for rent,"163 Rivington St # 3, New York, NY 10002","2 bds, 1.0 ba ,None sqft",USD,,"$3,000/mo",40.718932,New York,MULTI_FAMILY,NY,2,1.0,
-1,https://www.zillow.com/homedetails/156-Allen-St-APT-17A-New-York-NY-10002/2080955971_zpid/,-73.989653,FOR_RENT,,,,False,10002,Apartment for rent,"156 Allen St APT 17A, New York, NY 10002","0 bds, 1.0 ba ,None sqft",USD,,"$2,075/mo",40.720884,New York,MULTI_FAMILY,NY,0,1.0,
-1,https://www.zillow.com/homedetails/81-Rivington-St-APT-2A-New-York-NY-10002/2118468524_zpid/,-73.989339,FOR_RENT,,,,False,10002,Apartment for rent,"81 Rivington St APT 2A, New York, NY 10002","2 bds, 1.0 ba ,None sqft",USD,,"$3,900/mo",40.720233,New York,MULTI_FAMILY,NY,2,1.0,
,https://www.zillow.com/b/89-clinton-st-new-york-ny-8YyH/,-73.98554,,,,,False,,For Rent,"89 Clinton St, New York, NY"," bds,  ba , sqft",,,,40.718742,,,,,,
-1,https://www.zillow.com/homedetails/145-Attorney-St-APT-3B-New-York-NY-10002/2090454880_zpid/,-73.983744,FOR_RENT,,,,False,10002,Apartment for rent,"145 Attorney St APT 3B, New York, NY 10002","4 bds, 2.0 ba ,None sqft",USD,,"$8,095/mo",40.720156,New York,MULTI_FAMILY,NY,4,2.0,
,https://www.zillow.com/b/91-attorney-st-new-york-ny-97QKtn/,-73.984786,,,,,False,,For Rent,"91 Attorney St, New York, NY"," bds,  ba , sqft",,,,40.71832,,,,,,
-1,https://www.zillow.com/homedetails/163-Ludlow-St-APT-2A-New-York-NY-10002/2087314114_zpid/,-73.98788,FOR_RENT,,,,False,10002,Apartment for rent,"163 Ludlow St APT 2A, New York, NY 10002","1 bds, 1.0 ba ,None sqft",USD,,"$2,495/mo",40.721522,New York,MULTI_FAMILY,NY,1,1.0,
-1,https://www.zillow.com/homedetails/158-Orchard-St-APT-3C-New-York-NY-10002/2118613551_zpid/,-73.98854,FOR_RENT,,,,False,10002,Apartment for rent,"158 Orchard St APT 3C, New York, NY 10002","0 bds, 1.0 ba ,None sqft",USD,,"$2,195/mo",40.720912,New York,MULTI_FAMILY,NY,0,1.0,
-1,https://www.zillow.com/homedetails/210-Rivington-St-2-New-York-NY-10002/2119124579_zpid/,-73.982674,FOR_RENT,,,,False,10002,Apartment for rent,"210 Rivington St # 2, New York, NY 10002","3 bds, 1.0 ba ,800 sqft",USD,,"$4,299/mo",40.71849,New York,MULTI_FAMILY,NY,3,1.0,800
-1,https://www.zillow.com/homedetails/19-Stanton-St-APT-43-New-York-NY-10002/2080972530_zpid/,-73.991948,FOR_RENT,,,,False,10002,Apartment for rent,"19 Stanton St APT 43, New York, NY 10002","3 bds, 1.0 ba ,None sqft",USD,,"$4,499/mo",40.722407,New York,MULTI_FAMILY,NY,3,1.0,
,https://www.zillow.com/b/171-suffolk-st-new-york-ny-97QGpf/,-73.985058,,,,,False,,For Rent,"171 Suffolk St, New York, NY"," bds,  ba , sqft",,,,40.720975,,,,,,
-1,https://www.zillow.com/homedetails/153-Essex-St-APT-3B-New-York-NY-10002/2112356393_zpid/,-73.987284,FOR_RENT,,,,False,10002,Apartment for rent,"153 Essex St APT 3B, New York, NY 10002","1 bds, 1.0 ba ,None sqft",USD,,"$3,575/mo",40.720864,New York,MULTI_FAMILY,NY,1,1.0,
-1,https://www.zillow.com/homedetails/57-Pitt-St-APT-7-New-York-NY-10002/2084654154_zpid/,-73.983111,FOR_RENT,,,,False,10002,Apartment for rent,"57 Pitt St APT 7, New York, NY 10002","2 bds, 1.0 ba ,789 sqft",USD,,"$2,850/mo",40.717774,New York,MULTI_FAMILY,NY,2,1.0,789
,https://www.zillow.com/b/29-clinton-st-new-york-ny-97QJ8f/,-73.984527,,,,,False,,For Rent,"29 Clinton St, New York, NY"," bds,  ba , sqft",,,,40.720508,,,,,,
-1,https://www.zillow.com/homedetails/95-Orchard-St-APT-10-New-York-NY-10002/2101064602_zpid/,-73.990312,FOR_RENT,,,,False,10002,Apartment for rent,"95 Orchard St APT 10, New York, NY 10002","0 bds, 1.0 ba ,450 sqft",USD,,"$2,250/mo",40.718481,New York,MULTI_FAMILY,NY,0,1.0,450
-1,https://www.zillow.com/homedetails/198-Rivington-St-5C-New-York-NY-10002/2088023059_zpid/,-73.984346,FOR_RENT,,,,False,10002,Apartment for rent,"198 Rivington St # 5C, New York, NY 10002","4 bds, 1.0 ba ,None sqft",USD,,"$6,400/mo",40.719011,New York,MULTI_FAMILY,NY,4,1.0,
,https://www.zillow.com/b/196-stanton-st-new-york-ny-5XjM8P/,-73.983029,,,,,False,,For Rent,"196 Stanton St, New York, NY"," bds,  ba , sqft",,,,40.720009,,,,,,
-1,https://www.zillow.com/homedetails/162-Orchard-St-APT-2A-New-York-NY-10002/2127422766_zpid/,-73.988476,FOR_RENT,,,,False,10002,Apartment for rent,"162 Orchard St APT 2A, New York, NY 10002","2 bds, 1.0 ba ,None sqft",USD,,"$4,000/mo",40.721039,New York,MULTI_FAMILY,NY,2,1.0,
-1,https://www.zillow.com/homedetails/78-Rivington-St-APT-5C-New-York-NY-10002/2116801237_zpid/,-73.989291,FOR_RENT,,,,False,10002,Apartment for rent,"78 Rivington St APT 5C, New York, NY 10002","2 bds, 1.0 ba ,None sqft",USD,,"$4,000/mo",40.720481,New York,MULTI_FAMILY,NY,2,1.0,
-1,https://www.zillow.com/homedetails/107-Eldridge-St-APT-2C-New-York-NY-10002/2092420663_zpid/,-73.992222,FOR_RENT,,,,False,10002,Apartment for rent,"107 Eldridge St APT 2C, New York, NY 10002","0 bds, 1.0 ba ,None sqft",USD,,"$2,150/mo",40.718031,New York,MULTI_FAMILY,NY,0,1.0,
,https://www.zillow.com/b/125-delancey-st-new-york-ny-97QFxg/,-73.987751,,,,,False,,For Rent,"125 Delancey St, New York, NY"," bds,  ba , sqft",,,,40.71834,,,,,,
-1,https://www.zillow.com/homedetails/125-Delancey-St-APT-1807A-New-York-NY-10002/2080999024_zpid/,-73.98781,FOR_RENT,,,,False,10002,Apartment for rent,"125 Delancey St APT 1807A, New York, NY 10002","1 bds, 2.0 ba ,None sqft",USD,,"$4,945/mo",40.718316,New York,MULTI_FAMILY,NY,1,2.0,
-1,https://www.zillow.com/homedetails/199-Bowery-APT-5A-New-York-NY-10002/80005958_zpid/,-73.993259,FOR_RENT,,,,False,10002,Apartment for rent,"199 Bowery APT 5A, New York, NY 10002","2 bds, 2.0 ba ,900 sqft",USD,,"$6,395/mo",40.721038,New York,MULTI_FAMILY,NY,2,2.0,900
-1,https://www.zillow.com/homedetails/19-Eldridge-St-APT-5-New-York-NY-10002/2092139756_zpid/,-73.993839,FOR_RENT,,,,False,10002,Apartment for rent,"19 Eldridge St APT 5, New York, NY 10002","1 bds, 1.0 ba ,None sqft",USD,,"$2,750/mo",40.715045,New York,MULTI_FAMILY,NY,1,1.0,
-1,https://www.zillow.com/homedetails/220-E-5th-St-2-New-York-NY-10003/69509969_zpid/,-73.990311,FOR_RENT,,,,False,10003,Apartment for rent,"220 E 5th St # 2, New York, NY 10003","1 bds, 1.0 ba ,700 sqft",USD,,"$4,500/mo",40.72712,New York,MULTI_FAMILY,NY,1,1.0,700
,https://www.zillow.com/b/avalon-bowery-place-new-york-ny-5XVHKv/,-73.99188,,,,,False,,Avalon Bowery Place,"11 E 1st St, New York, NY"," bds,  ba , sqft",,,,40.724564,,,,,,
-1,https://www.zillow.com/homedetails/107-University-Pl-3SE-New-York-NY-10003/2080926692_zpid/,-73.992216,FOR_RENT,,,,False,10003,Apartment for rent,"107 University Pl # 3SE, New York, NY 10003","0 bds, 1.0 ba ,None sqft",USD,,"$2,740/mo",40.734142,New York,MULTI_FAMILY,NY,0,1.0,
-1,https://www.zillow.com/homedetails/240-E-13th-St-APT-22-New-York-NY-10003/2127586545_zpid/,-73.986833,FOR_RENT,,,,False,10003,Apartment for rent,"240 E 13th St APT 22, New York, NY 10003","2 bds, 1.0 ba ,550 sqft",USD,,"$2,782/mo",40.73209,New York,MULTI_FAMILY,NY,2,1.0,550
-1,https://www.zillow.com/homedetails/336-E-5th-St-APT-5RE-New-York-NY-10003/2111576536_zpid/,-73.987426,FOR_RENT,,,,False,10003,Apartment for rent,"336 E 5th St APT 5RE, New York, NY 10003","1 bds, 1.0 ba ,600 sqft",USD,,"$2,650/mo",40.725894,New York,MULTI_FAMILY,NY,1,1.0,600
,https://www.zillow.com/b/145-e-16th-st-new-york-ny-3MpN/,-73.987183,,,,,False,,For Rent,"145 E 16th St, New York, NY"," bds,  ba , sqft",,,,40.735185,,,,,,
,https://www.zillow.com/b/139-1st-ave-new-york-ny-5XjzfB/,-73.985381,,,,,False,,For Rent,"139 1st Ave, New York, NY"," bds,  ba , sqft",,,,40.728054,,,,,,
2007,https://www.zillow.com/homedetails/110-3rd-Ave-APT-9A-New-York-NY-10003/89333580_zpid/,-73.987833,FOR_RENT,,,,False,10003,Apartment for rent,"110 3rd Ave APT 9A, New York, NY 10003","2 bds, 2.0 ba ,1165 sqft",USD,,"$8,650/mo",40.732956,New York,MULTI_FAMILY,NY,2,2.0,1165
-1,https://www.zillow.com/homedetails/51-1st-Ave-APT-10-New-York-NY-10003/2105510777_zpid/,-73.987653,FOR_RENT,,,,False,10003,Apartment for rent,"51 1st Ave APT 10, New York, NY 10003","1 bds, 1.0 ba ,None sqft",USD,,"$2,495/mo",40.724933,New York,MULTI_FAMILY,NY,1,1.0,
1960,https://www.zillow.com/homedetails/201-E-15th-St-APT-5J-New-York-NY-10003/72517899_zpid/,-73.986599,FOR_RENT,,,,False,10003,Apartment for rent,"201 E 15th St APT 5J, New York, NY 10003","0 bds, 1.0 ba ,450 sqft",USD,,"$2,800/mo",40.734106,New York,MULTI_FAMILY,NY,0,1.0,450
,https://www.zillow.com/b/320-e-9th-st-new-york-ny-24JQ/,-73.986462,,,,,False,,For Rent,"320 E 9th St, New York, NY"," bds,  ba , sqft",,,,40.728634,,,,,,
,https://www.zillow.com/b/74-irving-pl-new-york-ny-8T4Z/,-73.986418,,,,,False,,For Rent,"74 Irving Pl, New York, NY"," bds,  ba , sqft",,,,40.736701,,,,,,
1926,https://www.zillow.com/homedetails/11-Waverly-Pl-9A-New-York-NY-10003/2131129353_zpid/,-73.994036,FOR_RENT,,,,False,10003,Apartment for rent,"11 Waverly Pl # 9A, New York, NY 10003","2 bds, 1.0 ba ,700 sqft",USD,,"$4,600/mo",40.730276,New York,MULTI_FAMILY,NY,2,1.0,700
,https://www.zillow.com/b/55-e-9th-st-new-york-ny-9hJgL6/,-73.99323,,,,,False,,For Rent,"55 E 9th St, New York, NY"," bds,  ba , sqft",,,,40.731874,,,,,,
,https://www.zillow.com/b/77-e-12th-st-new-york-ny-5Xj4MG/,-73.99049,,,,,False,,For Rent,"77 E 12th St, New York, NY"," bds,  ba , sqft",,,,40.733111,,,,,,
-1,https://www.zillow.com/homedetails/67-E-2nd-St-APT-1-New-York-NY-10003/2122976822_zpid/,-73.989245,FOR_RENT,,,,False,10003,Apartment for rent,"67 E 2nd St APT 1, New York, NY 10003","2 bds, 1.0 ba ,None sqft",USD,,"$4,350/mo",40.724162,New York,MULTI_FAMILY,NY,2,1.0,
,https://www.zillow.com/b/one-irving-place-new-york-ny-5Xwp/,-73.988918,,,,,False,,One Irving Place,"1 Irving Pl, New York, NY"," bds,  ba , sqft",,,,40.734049,,,,,,
-1,https://www.zillow.com/homedetails/304-E-20th-St-APT-5E-New-York-NY-10003/2126565839_zpid/,-73.981856,FOR_RENT,,,,False,10003,Apartment for rent,"304 E 20th St APT 5E, New York, NY 10003","0 bds, 1.0 ba ,None sqft",USD,,"$2,646/mo",40.735611,New York,MULTI_FAMILY,NY,0,1.0,
-1,https://www.zillow.com/homedetails/216-E-10th-St-APT-1B-New-York-NY-10003/2110071212_zpid/,-73.98592,FOR_RENT,,,,False,10003,Apartment for rent,"216 E 10th St APT 1B, New York, NY 10003","0 bds, 1.0 ba ,None sqft",USD,,"$2,000/mo",40.729166,New York,MULTI_FAMILY,NY,0,1.0,
-1,https://www.zillow.com/homedetails/30-E-14th-St-APT-5C-New-York-NY-10003/2127588599_zpid/,-73.992293,FOR_RENT,,,,False,10003,Apartment for rent,"30 E 14th St APT 5C, New York, NY 10003","1 bds, 1.0 ba ,700 sqft",USD,,"$3,700/mo",40.735132,New York,MULTI_FAMILY,NY,1,1.0,700
-1,https://www.zillow.com/homedetails/94-E-4th-St-APT-307-New-York-NY-10003/2120422736_zpid/,-73.989042,FOR_RENT,,,,False,10003,Apartment for rent,"94 E 4th St APT 307, New York, NY 10003","2 bds, 2.0 ba ,None sqft",USD,,"$5,675/mo",40.725873,New York,MULTI_FAMILY,NY,2,2.0,
,https://www.zillow.com/b/13-university-pl-new-york-ny-3hW8/,-73.995064,,,,,False,,For Rent,"1 University Pl, New York, NY"," bds,  ba , sqft",,,,40.730706,,,,,,
-1,https://www.zillow.com/homedetails/21-E-1st-St-APT-804-New-York-NY-10003/2093082852_zpid/,-73.991281,FOR_RENT,,,,False,10003,Apartment for rent,"21 E 1st St APT 804, New York, NY 10003","1 bds, 1.0 ba ,572 sqft",USD,,"$4,600/mo",40.724312,New York,MULTI_FAMILY,NY,1,1.0,572
,https://www.zillow.com/b/amdar-company-new-york-ny-5W7J/,-73.992622,,,,,False,,Amdar Company,"1 Astor Pl, New York, NY"," bds,  ba , sqft",,,,40.730185,,,,,,
1961,https://www.zillow.com/homedetails/69-5th-Ave-APT-4L-New-York-NY-10003/244845639_zpid/,-73.99311,FOR_RENT,,,,False,10003,Apartment for rent,"69 5th Ave APT 4L, New York, NY 10003","1 bds, 1.0 ba ,158565 sqft",USD,,"$4,795/mo",40.736155,New York,MULTI_FAMILY,NY,1,1.0,158565
,https://www.zillow.com/b/25-5th-ave-new-york-ny-4zVw/,-73.995668,,,,,False,,For Rent,"25 5th Ave, New York, NY"," bds,  ba , sqft",,,,40.732888,,,,,,
,https://www.zillow.com/b/355-bowery-new-york-ny-24PJ/,-73.991317,,,,,False,,For Rent,"355 Bowery, New York, NY"," bds,  ba , sqft",,,,40.726661,,,,,,
,https://www.zillow.com/b/310-e-6th-st-new-york-ny-3Lkj/,-73.988007,,,,,False,,For Rent,"310 E 6th St, New York, NY"," bds,  ba , sqft",,,,40.726937,,,,,,
,https://www.zillow.com/b/82-university-pl-new-york-ny-25Q5/,-73.993452,,,,,False,,For Rent,"82 University Pl, New York, NY"," bds,  ba , sqft",,,,40.733581,,,,,,
-1,https://www.zillow.com/homedetails/30-Saint-Marks-Pl-APT-1A-New-York-NY-10003/2095032795_zpid/,-73.98857,FOR_RENT,,,,False,10003,Apartment for rent,"30 Saint Marks Pl APT 1A, New York, NY 10003","2 bds, 1.0 ba ,700 sqft",USD,,"$3,500/mo",40.728697,New York,MULTI_FAMILY,NY,2,1.0,700
-1,https://www.zillow.com/homedetails/21-E-2nd-St-APT-8-New-York-NY-10003/2116042629_zpid/,-73.991086,FOR_RENT,,,,False,10003,Apartment for rent,"21 E 2nd St APT 8, New York, NY 10003","1 bds, 1.0 ba ,None sqft",USD,,"$3,000/mo",40.725021,New York,MULTI_FAMILY,NY,1,1.0,
,https://www.zillow.com/b/60-e-8th-st-new-york-ny-8y4M/,-73.993074,,,,,False,,For Rent,"60 E 8th St, New York, NY"," bds,  ba , sqft",,,,40.7305,,,,,,
,https://www.zillow.com/b/150-e-18th-st-new-york-ny-6TKf/,-73.985978,,,,,False,,For Rent,"150 E 18th St, New York, NY"," bds,  ba , sqft",,,,40.735822,,,,,,
,https://www.zillow.com/b/9-e-13th-st-new-york-ny-5XjsYB/,-73.993581,,,,,False,,For Rent,"9 E 13th St, New York, NY"," bds,  ba , sqft",,,,40.735247,,,,,,
,"https://www.zillow.com/b/The-Modern-at-Gramercy-Square-New-York-NY/40.736342,-73.983027_ll/",-73.983027,,,,,False,,The Modern at Gramercy Square,"230 E 20th St, New York, NY"," bds,  ba , sqft",,,,40.736342,,,,,,
1920,https://www.zillow.com/homedetails/152-2nd-Ave-APT-5E-New-York-NY-10003/2103014325_zpid/,-73.986673,FOR_RENT,,,,False,10003,Apartment for rent,"152 2nd Ave APT 5E, New York, NY 10003","3 bds, 2.5 ba ,None sqft",USD,,"$6,000/mo",40.729351,New York,MULTI_FAMILY,NY,3,2.5,
-1,https://www.zillow.com/homedetails/34-E-7th-St-APT-3E-New-York-NY-10003/2120584407_zpid/,-73.989132,FOR_RENT,,,,False,10003,Apartment for rent,"34 E 7th St APT 3E, New York, NY 10003","1 bds, 1.0 ba ,None sqft",USD,,"$2,600/mo",40.728178,New York,MULTI_FAMILY,NY,1,1.0,
-1,https://www.zillow.com/homedetails/62-E-7th-St-4-New-York-NY-10003/2080995120_zpid/,-73.98719,FOR_RENT,,,,False,10003,Apartment for rent,"62 E 7th St # 4, New York, NY 10003","2 bds, 1.0 ba ,900 sqft",USD,,"$4,400/mo",40.72735,New York,MULTI_FAMILY,NY,2,1.0,900
-1,https://www.zillow.com/homedetails/51-Irving-Pl-3B-New-York-NY-10003/2095440947_zpid/,-73.987535,FOR_RENT,,,,False,10003,Apartment for rent,"51 Irving Pl # 3B, New York, NY 10003","1 bds, 1.0 ba ,None sqft",USD,,"$4,495/mo",40.736154,New York,MULTI_FAMILY,NY,1,1.0,
,https://www.zillow.com/b/300-mercer-st-new-york-ny-5XjKn3/,-73.993442,,,,,False,,For Rent,"300 Mercer St, New York, NY"," bds,  ba , sqft",,,,40.730072,,,,,,
-1,https://www.zillow.com/homedetails/220-E-5th-St-2-New-York-NY-10003/69509969_zpid/,-73.990311,FOR_RENT,,,,False,10003,Apartment for rent,"220 E 5th St # 2, New York, NY 10003","1 bds, 1.0 ba ,700 sqft",USD,,"$4,500/mo",40.72712,New York,MULTI_FAMILY,NY,1,1.0,700
,https://www.zillow.com/b/avalon-bowery-place-new-york-ny-5XVHKv/,-73.99188,,,,,False,,Avalon Bowery Place,"11 E 1st St, New York, NY"," bds,  ba , sqft",,,,40.724564,,,,,,
-1,https://www.zillow.com/homedetails/107-University-Pl-3SE-New-York-NY-10003/2080926692_zpid/,-73.992216,FOR_RENT,,,,False,10003,Apartment for rent,"107 University Pl # 3SE, New York, NY 10003","0 bds, 1.0 ba ,None sqft",USD,,"$2,740/mo",40.734142,New York,MULTI_FAMILY,NY,0,1.0,
-1,https://www.zillow.com/homedetails/240-E-13th-St-APT-22-New-York-NY-10003/2127586545_zpid/,-73.986833,FOR_RENT,,,,False,10003,Apartment for rent,"240 E 13th St APT 22, New York, NY 10003","2 bds, 1.0 ba ,550 sqft",USD,,"$2,782/mo",40.73209,New York,MULTI_FAMILY,NY,2,1.0,550
-1,https://www.zillow.com/homedetails/336-E-5th-St-APT-5RE-New-York-NY-10003/2111576536_zpid/,-73.987426,FOR_RENT,,,,False,10003,Apartment for rent,"336 E 5th St APT 5RE, New York, NY 10003","1 bds, 1.0 ba ,600 sqft",USD,,"$2,650/mo",40.725894,New York,MULTI_FAMILY,NY,1,1.0,600
,https://www.zillow.com/b/145-e-16th-st-new-york-ny-3MpN/,-73.987183,,,,,False,,For Rent,"145 E 16th St, New York, NY"," bds,  ba , sqft",,,,40.735185,,,,,,
,https://www.zillow.com/b/139-1st-ave-new-york-ny-5XjzfB/,-73.985381,,,,,False,,For Rent,"139 1st Ave, New York, NY"," bds,  ba , sqft",,,,40.728054,,,,,,
2007,https://www.zillow.com/homedetails/110-3rd-Ave-APT-9A-New-York-NY-10003/89333580_zpid/,-73.987833,FOR_RENT,,,,False,10003,Apartment for rent,"110 3rd Ave APT 9A, New York, NY 10003","2 bds, 2.0 ba ,1165 sqft",USD,,"$8,650/mo",40.732956,New York,MULTI_FAMILY,NY,2,2.0,1165
-1,https://www.zillow.com/homedetails/51-1st-Ave-APT-10-New-York-NY-10003/2105510777_zpid/,-73.987653,FOR_RENT,,,,False,10003,Apartment for rent,"51 1st Ave APT 10, New York, NY 10003","1 bds, 1.0 ba ,None sqft",USD,,"$2,495/mo",40.724933,New York,MULTI_FAMILY,NY,1,1.0,
1960,https://www.zillow.com/homedetails/201-E-15th-St-APT-5J-New-York-NY-10003/72517899_zpid/,-73.986599,FOR_RENT,,,,False,10003,Apartment for rent,"201 E 15th St APT 5J, New York, NY 10003","0 bds, 1.0 ba ,450 sqft",USD,,"$2,800/mo",40.734106,New York,MULTI_FAMILY,NY,0,1.0,450
,https://www.zillow.com/b/74-irving-pl-new-york-ny-8T4Z/,-73.986418,,,,,False,,For Rent,"74 Irving Pl, New York, NY"," bds,  ba , sqft",,,,40.736701,,,,,,
,https://www.zillow.com/b/320-e-9th-st-new-york-ny-24JQ/,-73.986462,,,,,False,,For Rent,"320 E 9th St, New York, NY"," bds,  ba , sqft",,,,40.728634,,,,,,
1926,https://www.zillow.com/homedetails/11-Waverly-Pl-9A-New-York-NY-10003/2131129353_zpid/,-73.994036,FOR_RENT,,,,False,10003,Apartment for rent,"11 Waverly Pl # 9A, New York, NY 10003","2 bds, 1.0 ba ,700 sqft",USD,,"$4,600/mo",40.730276,New York,MULTI_FAMILY,NY,2,1.0,700
,https://www.zillow.com/b/55-e-9th-st-new-york-ny-9hJgL6/,-73.99323,,,,,False,,For Rent,"55 E 9th St, New York, NY"," bds,  ba , sqft",,,,40.731874,,,,,,
,https://www.zillow.com/b/77-e-12th-st-new-york-ny-5Xj4MG/,-73.99049,,,,,False,,For Rent,"77 E 12th St, New York, NY"," bds,  ba , sqft",,,,40.733111,,,,,,
-1,https://www.zillow.com/homedetails/67-E-2nd-St-APT-1-New-York-NY-10003/2122976822_zpid/,-73.989245,FOR_RENT,,,,False,10003,Apartment for rent,"67 E 2nd St APT 1, New York, NY 10003","2 bds, 1.0 ba ,None sqft",USD,,"$4,350/mo",40.724162,New York,MULTI_FAMILY,NY,2,1.0,
,https://www.zillow.com/b/one-irving-place-new-york-ny-5Xwp/,-73.988918,,,,,False,,One Irving Place,"1 Irving Pl, New York, NY"," bds,  ba , sqft",,,,40.734049,,,,,,
-1,https://www.zillow.com/homedetails/304-E-20th-St-APT-5E-New-York-NY-10003/2126565839_zpid/,-73.981856,FOR_RENT,,,,False,10003,Apartment for rent,"304 E 20th St APT 5E, New York, NY 10003","0 bds, 1.0 ba ,None sqft",USD,,"$2,646/mo",40.735611,New York,MULTI_FAMILY,NY,0,1.0,
-1,https://www.zillow.com/homedetails/216-E-10th-St-APT-1B-New-York-NY-10003/2110071212_zpid/,-73.98592,FOR_RENT,,,,False,10003,Apartment for rent,"216 E 10th St APT 1B, New York, NY 10003","0 bds, 1.0 ba ,None sqft",USD,,"$2,000/mo",40.729166,New York,MULTI_FAMILY,NY,0,1.0,
-1,https://www.zillow.com/homedetails/30-E-14th-St-APT-5C-New-York-NY-10003/2127588599_zpid/,-73.992293,FOR_RENT,,,,False,10003,Apartment for rent,"30 E 14th St APT 5C, New York, NY 10003","1 bds, 1.0 ba ,700 sqft",USD,,"$3,700/mo",40.735132,New York,MULTI_FAMILY,NY,1,1.0,700
-1,https://www.zillow.com/homedetails/94-E-4th-St-APT-307-New-York-NY-10003/2120422736_zpid/,-73.989042,FOR_RENT,,,,False,10003,Apartment for rent,"94 E 4th St APT 307, New York, NY 10003","2 bds, 2.0 ba ,None sqft",USD,,"$5,675/mo",40.725873,New York,MULTI_FAMILY,NY,2,2.0,
,https://www.zillow.com/b/13-university-pl-new-york-ny-3hW8/,-73.995064,,,,,False,,For Rent,"1 University Pl, New York, NY"," bds,  ba , sqft",,,,40.730706,,,,,,
-1,https://www.zillow.com/homedetails/21-E-1st-St-APT-804-New-York-NY-10003/2093082852_zpid/,-73.991281,FOR_RENT,,,,False,10003,Apartment for rent,"21 E 1st St APT 804, New York, NY 10003","1 bds, 1.0 ba ,572 sqft",USD,,"$4,600/mo",40.724312,New York,MULTI_FAMILY,NY,1,1.0,572
,https://www.zillow.com/b/amdar-company-new-york-ny-5W7J/,-73.992622,,,,,False,,Amdar Company,"1 Astor Pl, New York, NY"," bds,  ba , sqft",,,,40.730185,,,,,,
1961,https://www.zillow.com/homedetails/69-5th-Ave-APT-4L-New-York-NY-10003/244845639_zpid/,-73.99311,FOR_RENT,,,,False,10003,Apartment for rent,"69 5th Ave APT 4L, New York, NY 10003","1 bds, 1.0 ba ,158565 sqft",USD,,"$4,795/mo",40.736155,New York,MULTI_FAMILY,NY,1,1.0,158565
,https://www.zillow.com/b/25-5th-ave-new-york-ny-4zVw/,-73.995668,,,,,False,,For Rent,"25 5th Ave, New York, NY"," bds,  ba , sqft",,,,40.732888,,,,,,
,https://www.zillow.com/b/82-university-pl-new-york-ny-25Q5/,-73.993452,,,,,False,,For Rent,"82 University Pl, New York, NY"," bds,  ba , sqft",,,,40.733581,,,,,,
,https://www.zillow.com/b/310-e-6th-st-new-york-ny-3Lkj/,-73.988007,,,,,False,,For Rent,"310 E 6th St, New York, NY"," bds,  ba , sqft",,,,40.726937,,,,,,
,https://www.zillow.com/b/355-bowery-new-york-ny-24PJ/,-73.991317,,,,,False,,For Rent,"355 Bowery, New York, NY"," bds,  ba , sqft",,,,40.726661,,,,,,
-1,https://www.zillow.com/homedetails/30-Saint-Marks-Pl-APT-1A-New-York-NY-10003/2095032795_zpid/,-73.98857,FOR_RENT,,,,False,10003,Apartment for rent,"30 Saint Marks Pl APT 1A, New York, NY 10003","2 bds, 1.0 ba ,700 sqft",USD,,"$3,500/mo",40.728697,New York,MULTI_FAMILY,NY,2,1.0,700
-1,https://www.zillow.com/homedetails/21-E-2nd-St-APT-8-New-York-NY-10003/2116042629_zpid/,-73.991086,FOR_RENT,,,,False,10003,Apartment for rent,"21 E 2nd St APT 8, New York, NY 10003","1 bds, 1.0 ba ,None sqft",USD,,"$3,000/mo",40.725021,New York,MULTI_FAMILY,NY,1,1.0,
,https://www.zillow.com/b/60-e-8th-st-new-york-ny-8y4M/,-73.993074,,,,,False,,For Rent,"60 E 8th St, New York, NY"," bds,  ba , sqft",,,,40.7305,,,,,,
,https://www.zillow.com/b/150-e-18th-st-new-york-ny-6TKf/,-73.985978,,,,,False,,For Rent,"150 E 18th St, New York, NY"," bds,  ba , sqft",,,,40.735822,,,,,,
,https://www.zillow.com/b/9-e-13th-st-new-york-ny-5XjsYB/,-73.993581,,,,,False,,For Rent,"9 E 13th St, New York, NY"," bds,  ba , sqft",,,,40.735247,,,,,,
,"https://www.zillow.com/b/The-Modern-at-Gramercy-Square-New-York-NY/40.736342,-73.983027_ll/",-73.983027,,,,,False,,The Modern at Gramercy Square,"230 E 20th St, New York, NY"," bds,  ba , sqft",,,,40.736342,,,,,,
1920,https://www.zillow.com/homedetails/152-2nd-Ave-APT-5E-New-York-NY-10003/2103014325_zpid/,-73.986673,FOR_RENT,,,,False,10003,Apartment for rent,"152 2nd Ave APT 5E, New York, NY 10003","3 bds, 2.5 ba ,None sqft",USD,,"$6,000/mo",40.729351,New York,MULTI_FAMILY,NY,3,2.5,
-1,https://www.zillow.com/homedetails/34-E-7th-St-APT-3E-New-York-NY-10003/2120584407_zpid/,-73.989132,FOR_RENT,,,,False,10003,Apartment for rent,"34 E 7th St APT 3E, New York, NY 10003","1 bds, 1.0 ba ,None sqft",USD,,"$2,600/mo",40.728178,New York,MULTI_FAMILY,NY,1,1.0,
-1,https://www.zillow.com/homedetails/62-E-7th-St-4-New-York-NY-10003/2080995120_zpid/,-73.98719,FOR_RENT,,,,False,10003,Apartment for rent,"62 E 7th St # 4, New York, NY 10003","2 bds, 1.0 ba ,900 sqft",USD,,"$4,400/mo",40.72735,New York,MULTI_FAMILY,NY,2,1.0,900
-1,https://www.zillow.com/homedetails/51-Irving-Pl-3B-New-York-NY-10003/2095440947_zpid/,-73.987535,FOR_RENT,,,,False,10003,Apartment for rent,"51 Irving Pl # 3B, New York, NY 10003","1 bds, 1.0 ba ,None sqft",USD,,"$4,495/mo",40.736154,New York,MULTI_FAMILY,NY,1,1.0,
,https://www.zillow.com/b/300-mercer-st-new-york-ny-5XjKn3/,-73.993442,,,,,False,,For Rent,"300 Mercer St, New York, NY"," bds,  ba , sqft",,,,40.730072,,,,,,
-1,https://www.zillow.com/homedetails/44-Water-St-APT-2B-New-York-NY-10004/2080933834_zpid/,-74.010099,FOR_RENT,,,,False,10004,Apartment for rent,"44 Water St APT 2B, New York, NY 10004","4 bds, 2.0 ba ,1300 sqft",USD,,"$6,100/mo",40.703606,New York,MULTI_FAMILY,NY,4,2.0,1300
,"https://www.zillow.com/b/1-West-St-New-York-NY/40.705144,-74.016465_ll/",-74.016465,,,,,False,,For Rent,"1 West St, New York, NY"," bds,  ba , sqft",,,,40.705144,,,,,,
-1,https://www.zillow.com/homedetails/2-Coenties-Slip-BLDG-2-New-York-NY-10004/2090193897_zpid/,-74.010402,FOR_RENT,,,,False,10004,Apartment for rent,"2 Coenties Slip BLDG 2, New York, NY 10004","1 bds, 1.0 ba ,800 sqft",USD,,"$3,450/mo",40.703659,New York,MULTI_FAMILY,NY,1,1.0,800
-1,https://www.zillow.com/homedetails/30-Water-St-17A-New-York-NY-10004/2080952470_zpid/,-74.011019,FOR_RENT,,,,False,10004,Apartment for rent,"30 Water St # 17A, New York, NY 10004","0 bds, 1.0 ba ,None sqft",USD,,"$3,050/mo",40.703289,New York,MULTI_FAMILY,NY,0,1.0,
,https://www.zillow.com/b/40-broad-st-new-york-ny-5Xj5jz/,-74.011786,,,,,False,,For Rent,"40 Broad St, New York, NY"," bds,  ba , sqft",,,,40.706021,,,,,,
,https://www.zillow.com/b/70-little-west-st-new-york-ny-97QQdr/,-74.016498,,,,,False,,For Rent,"70 Little West St, New York, NY"," bds,  ba , sqft",,,,40.707055,,,,,,
,https://www.zillow.com/b/66-pearl-st-new-york-ny-5XjpM6/,-74.010891,,,,,False,,For Rent,"66 Pearl St, New York, NY"," bds,  ba , sqft",,,,40.703484,,,,,,
,https://www.zillow.com/b/downtown-athletic-club-building-new-york-ny-8MhL/,-74.015609,,,,,False,,Downtown Athletic Club Building,"20 West St, New York, NY"," bds,  ba , sqft",,,,40.706184,,,,,,
,https://www.zillow.com/b/new-york-plaza-new-york-ny-5Z6Kyp/,-74.012696,,,,,False,,New York Plaza,"2 Water St, New York, NY"," bds,  ba , sqft",,,,40.702836,,,,,,
1926,https://www.zillow.com/homedetails/3-Hanover-Sq-APT-8B-New-York-NY-10004/112332910_zpid/,-74.00962,FOR_RENT,,,,False,10004,Apartment for rent,"3 Hanover Sq APT 8B, New York, NY 10004","0 bds, 1.0 ba ,550 sqft",USD,,"$2,975/mo",40.705003,New York,MULTI_FAMILY,NY,0,1.0,550
2006,https://www.zillow.com/homedetails/30-West-St-APT-27E-New-York-NY-10004/2138442606_zpid/,-74.016688,FOR_RENT,,,,False,10004,Apartment for rent,"30 West St APT 27E, New York, NY 10004","2 bds, 2.5 ba ,1526 sqft",USD,,"$8,500/mo",40.705477,New York,MULTI_FAMILY,NY,2,2.5,1526
-1,https://www.zillow.com/homedetails/21-S-William-St-APT-6B-New-York-NY-10004/2081918873_zpid/,-74.010633,FOR_RENT,,,,False,10004,Apartment for rent,"21 S William St APT 6B, New York, NY 10004","1 bds, 1.0 ba ,641 sqft",USD,,"$3,400/mo",40.704366,New York,MULTI_FAMILY,NY,1,1.0,641
-1,https://www.zillow.com/homedetails/77-Water-St-9B-New-York-NY-10005/2080927539_zpid/,-74.008196,FOR_RENT,,,,False,10005,Apartment for rent,"77 Water St # 9B, New York, NY 10005","2 bds, 2.0 ba ,1180 sqft",USD,,"$6,150/mo",40.704227,New York,MULTI_FAMILY,NY,2,2.0,1180
,https://www.zillow.com/b/95-wall-new-york-ny-5XSsMP/,-74.007578,,,,,False,,95 Wall,"95 Wall St, New York, NY"," bds,  ba , sqft",,,,40.704676,,,,,,
,https://www.zillow.com/b/10-hanover-square-new-york-ny-5hC6r4/,-74.008856,,,,,False,,10 Hanover Square,"10 Hanover Sq, New York, NY"," bds,  ba , sqft",,,,40.70457,,,,,,
,https://www.zillow.com/b/45-wall-street-new-york-ny-8Jmx/,-74.009917,,,,,False,,45 Wall Street,"45 Wall St, New York, NY"," bds,  ba , sqft",,,,40.706207,,,,,,
,https://www.zillow.com/b/20-exchange-new-york-ny-5XjKnP/,-74.009567,,,,,False,,20 Exchange,"20 Exchange Pl, New York, NY"," bds,  ba , sqft",,,,40.705461,,,,,,
,https://www.zillow.com/b/70-pine-st-new-york-ny-63f2hG/,-74.007666,,,,,False,,For Rent,"70 Pine St, New York, NY"," bds,  ba , sqft",,,,40.706347,,,,,,
,https://www.zillow.com/b/15-william-st-new-york-ny-8RVD/,-74.010355,,,,,False,,For Rent,"15 William St, New York, NY"," bds,  ba , sqft",,,,40.705368,,,,,,
-1,https://www.zillow.com/homedetails/55-Wall-St-APT-542-New-York-NY-10005/80011447_zpid/,-74.009114,FOR_RENT,,,,False,10005,Apartment for rent,"55 Wall St APT 542, New York, NY 10005","0 bds, 1.0 ba ,861 sqft",USD,,"$4,200/mo",40.706012,New York,MULTI_FAMILY,NY,0,1.0,861
-1,https://www.zillow.com/homedetails/57-Wall-St-907-New-York-NY-10005/2080989639_zpid/,-74.008882,FOR_RENT,,,,False,10005,Apartment for rent,"57 Wall St # 907, New York, NY 10005","3 bds, 1.0 ba ,None sqft",USD,,"$4,400/mo",40.706056,New York,MULTI_FAMILY,NY,3,1.0,
,https://www.zillow.com/b/20-broad-st-new-york-ny-5Xyv7s/,-74.011459,,,,,False,,For Rent,"20 Broad St, New York, NY"," bds,  ba , sqft",,,,40.706615,,,,,,
,https://www.zillow.com/b/37-wall-street-new-york-ny-5XSsKG/,-74.010227,,,,,False,,37 Wall Street,"37 Wall St, New York, NY"," bds,  ba , sqft",,,,40.706305,,,,,,
,https://www.zillow.com/b/1-wall-street-ct-new-york-ny-5gjcKP/,-74.008531,,,,,False,,For Rent,"1 Wall Street Ct, New York, NY"," bds,  ba , sqft",,,,40.705216,,,,,,
,https://www.zillow.com/b/63-wall-st-new-york-ny-5XjKnQ/,-74.008774,,,,,False,,For Rent,"63 Wall St, New York, NY"," bds,  ba , sqft",,,,40.705629,,,,,,
1893,https://www.zillow.com/homedetails/56-Pine-St-APT-8G-New-York-NY-10005/69509775_zpid/,-74.008327,FOR_RENT,,,,False,10005,Apartment for rent,"56 Pine St APT 8G, New York, NY 10005","1 bds, 1.0 ba ,775 sqft",USD,,"$3,000/mo",40.706836,New York,MULTI_FAMILY,NY,1,1.0,775
,https://www.zillow.com/b/75-wall-st-new-york-ny-2269/,-74.008117,,,,,False,,For Rent,"75 Wall St, New York, NY"," bds,  ba , sqft",,,,40.705042,,,,,,
,https://www.zillow.com/b/20-pine-the-collection-new-york-ny-6zrJ/,-74.009732,,,,,False,,20 Pine - The Collection,"20 Pine St, New York, NY"," bds,  ba , sqft",,,,40.707729,,,,,,
,https://www.zillow.com/b/55-wall-st-new-york-ny-8JnB/,-74.009339,,,,,False,,For Rent,"55 Wall St, New York, NY"," bds,  ba , sqft",,,,40.705931,,,,,,
-1,https://www.zillow.com/homedetails/Wall-St-New-York-NY-10005/2090983145_zpid/,-74.00952,FOR_RENT,,,,False,10005,Apartment for rent,"Wall St, New York, NY 10005","2 bds, 1.0 ba ,None sqft",USD,,"$3,785/mo",40.70639,New York,MULTI_FAMILY,NY,2,1.0,
,https://www.zillow.com/b/20-pine-the-collection-new-york-ny-6zrJ/,-74.010002,,,,,False,,20 Pine - The Collection,"20 Pine St, New York, NY"," bds,  ba , sqft",,,,40.707749,,,,,,
,https://www.zillow.com/b/67-wall-st-new-york-ny-225J/,-74.008397,,,,,False,,For Rent,"67 Wall St, New York, NY"," bds,  ba , sqft",,,,40.705546,,,,,,
1904,https://www.zillow.com/homedetails/1-Wall-Street-Ct-APT-306-New-York-NY-10005/80008315_zpid/,-74.011779,FOR_RENT,,,,False,10005,Apartment for rent,"1 Wall Street Ct APT 306, New York, NY 10005","0 bds, 1.0 ba ,367 sqft",USD,,"$2,500/mo",40.70764,New York,MULTI_FAMILY,NY,0,1.0,367
1914,https://www.zillow.com/homedetails/15-Broad-St-APT-1624-New-York-NY-10005/80012986_zpid/,-74.010587,FOR_RENT,,,,False,10005,Apartment for rent,"15 Broad St APT 1624, New York, NY 10005","2 bds, 2.0 ba ,1510 sqft",USD,,"$6,495/mo",40.706531,New York,MULTI_FAMILY,NY,2,2.0,1510
,https://www.zillow.com/b/102-greenwich-st-new-york-ny-227k/,-74.013687,,,,,False,,For Rent,"102 Greenwich St, New York, NY"," bds,  ba , sqft",,,,40.708434,,,,,,
,https://www.zillow.com/b/90w-new-york-ny-5XjKnM/,-74.014846,,,,,False,,90w,"90 Washington St, New York, NY"," bds,  ba , sqft",,,,40.708073,,,,,,
,https://www.zillow.com/b/greenwich-club-new-york-ny-5Xj4MW/,-74.014085,,,,,False,,Greenwich Club,"88 Greenwich St, New York, NY"," bds,  ba , sqft",,,,40.707876,,,,,,
,https://www.zillow.com/b/90-west-st-new-york-ny-65WXsB/,-74.014255,,,,,False,,For Rent,"90 West St, New York, NY"," bds,  ba , sqft",,,,40.709992,,,,,,
,https://www.zillow.com/b/21-west-st-new-york-ny-8Mft/,-74.015532,,,,,False,,For Rent,"21 West St, New York, NY"," bds,  ba , sqft",,,,40.706383,,,,,,
,https://www.zillow.com/b/123-washington-st-new-york-ny-3fRF/,-74.013712,,,,,False,,For Rent,"123 Washington St, New York, NY"," bds,  ba , sqft",,,,40.709161,,,,,,
-1,https://www.zillow.com/homedetails/33-Rector-St-16M-New-York-NY-10006/2081019327_zpid/,-74.014952,FOR_RENT,,,,False,10006,Apartment for rent,"33 Rector St # 16M, New York, NY 10006","3 bds, 1.0 ba ,None sqft",USD,,"$3,700/mo",40.708308,New York,MULTI_FAMILY,NY,3,1.0,
2016,https://www.zillow.com/homedetails/50-West-St-53C-New-York-NY-10006/244715130_zpid/,-74.014993,FOR_RENT,,,,False,10006,Apartment for rent,"50 West St # 53C, New York, NY 10006","4 bds, 4.0 ba ,2669 sqft",USD,,"$19,900/mo",40.707762,New York,MULTI_FAMILY,NY,4,4.0,2669
,https://www.zillow.com/b/120-greenwich-st-new-york-ny-5XjZJP/,-74.013399,,,,,False,,For Rent,"120 Greenwich St, New York, NY"," bds,  ba , sqft",,,,40.709007,,,,,,
,https://www.zillow.com/b/50-west-st-new-york-ny-65WhLY/,-74.014992,,,,,False,,For Rent,"50 West St, New York, NY"," bds,  ba , sqft",,,,40.707763,,,,,,
,https://www.zillow.com/b/110-greenwich-st-new-york-ny-227g/,-74.013579,,,,,False,,For Rent,"110 Greenwich St, New York, NY"," bds,  ba , sqft",,,,40.708729,,,,,,
1929,https://www.zillow.com/homedetails/88-Greenwich-St-APT-1019-New-York-NY-10006/89332465_zpid/,-74.013711,FOR_RENT,,,,False,10006,Apartment for rent,"88 Greenwich St APT 1019, New York, NY 10006","0 bds, 1.0 ba ,654 sqft",USD,,"$3,400/mo",40.707823,New York,MULTI_FAMILY,NY,0,1.0,654
-1,https://www.zillow.com/homedetails/75-West-St-APT-6O-New-York-NY-10006/2125418133_zpid/,-74.014925,FOR_RENT,,,,False,10006,Apartment for rent,"75 West St APT 6O, New York, NY 10006","2 bds, 2.0 ba ,None sqft",USD,,"$5,500/mo",40.709297,New York,MULTI_FAMILY,NY,2,2.0,
2007,https://www.zillow.com/homedetails/123-Washington-St-APT-51G-New-York-NY-10006/244721800_zpid/,-74.013871,FOR_RENT,,,,False,10006,Apartment for rent,"123 Washington St APT 51G, New York, NY 10006","1 bds, 1.0 ba ,708 sqft",USD,,"$4,795/mo",40.709031,New York,MULTI_FAMILY,NY,1,1.0,708
-1,https://www.zillow.com/homedetails/50-Trinity-Pl-10-New-York-NY-10006/2081406832_zpid/,-74.013298,FOR_RENT,,,,False,10006,Apartment for rent,"50 Trinity Pl # 10, New York, NY 10006","3 bds, 1.0 ba ,950 sqft",USD,,"$5,333/mo",40.707764,New York,MULTI_FAMILY,NY,3,1.0,950
2010,https://www.zillow.com/homedetails/123-Washington-St-53D-New-York-NY-10006/112512761_zpid/,-74.013711,FOR_RENT,,,,False,10006,Apartment for rent,"123 Washington St # 53D, New York, NY 10006","2 bds, 2.0 ba ,1023 sqft",USD,,"$6,950/mo",40.709161,New York,MULTI_FAMILY,NY,2,2.0,1023
,https://www.zillow.com/b/tribeca-tower-new-york-ny-5XjGzG/,-74.005973,,,,,False,,Tribeca Tower,"105 Duane St, New York, NY"," bds,  ba , sqft",,,,40.715821,,,,,,
-1,https://www.zillow.com/homedetails/105-Duane-St-PH-C-New-York-NY-10007/2118323920_zpid/,-74.005923,FOR_RENT,,,,False,10007,Apartment for rent,"105 Duane St PH C, New York, NY 10007","0 bds, 1.0 ba ,None sqft",USD,,"$4,655/mo",40.715583,New York,MULTI_FAMILY,NY,0,1.0,
-1,https://www.zillow.com/homedetails/20-Murray-St-APT-5N-New-York-NY-10007/2082066180_zpid/,-74.008528,FOR_RENT,,,,False,10007,Apartment for rent,"20 Murray St APT 5N, New York, NY 10007","3 bds, 2.0 ba ,2000 sqft",USD,,"$7,900/mo",40.713647,New York,MULTI_FAMILY,NY,3,2.0,2000
,https://www.zillow.com/b/89-murray-new-york-ny-5XSsqs/,-74.012113,,,,,False,,89 Murray,"89 Murray St, New York, NY"," bds,  ba , sqft",,,,40.715628,,,,,,
,https://www.zillow.com/b/50-murray-st-new-york-ny-65c8x2/,-74.009601,,,,,False,,For Rent,"50 Murray St, New York, NY"," bds,  ba , sqft",,,,40.713986,,,,,,
,https://www.zillow.com/b/200-chambers-st-new-york-ny-22LY/,-74.012392,,,,,False,,For Rent,"200 Chambers St, New York, NY"," bds,  ba , sqft",,,,40.716578,,,,,,
,https://www.zillow.com/b/275-greenwich-st-new-york-ny-5Xjb8G/,-74.010921,,,,,False,,For Rent,"275 Greenwich St, New York, NY"," bds,  ba , sqft",,,,40.715173,,,,,,
,https://www.zillow.com/b/101-warren-st-new-york-ny-8Rxr/,-74.011435,,,,,False,,For Rent,"101 Warren St, New York, NY"," bds,  ba , sqft",,,,40.715585,,,,,,
-1,https://www.zillow.com/homedetails/139-Chambers-St-2-New-York-NY-10007/2081129201_zpid/,-74.009425,FOR_RENT,,,,False,10007,Apartment for rent,"139 Chambers St # 2, New York, NY 10007","3 bds, 1.0 ba ,2300 sqft",USD,,"$5,999/mo",40.715801,New York,MULTI_FAMILY,NY,3,1.0,2300
,https://www.zillow.com/b/111-murray-street-new-york-ny-65cYxd/,-74.01259,,,,,False,,111 Murray Street,"111 Murray St, New York, NY"," bds,  ba , sqft",,,,40.715408,,,,,,
1905,https://www.zillow.com/homedetails/77-Warren-St-APT-2-New-York-NY-10007/124437973_zpid/,-74.010368,FOR_RENT,,,,False,10007,Apartment for rent,"77 Warren St APT 2, New York, NY 10007","2 bds, 2.0 ba ,1510 sqft",USD,,"$10,500/mo",40.715046,New York,MULTI_FAMILY,NY,2,2.0,1510
1930,https://www.zillow.com/homedetails/25-Murray-St-APT-2J-New-York-NY-10007/83937435_zpid/,-74.008215,FOR_RENT,,,,False,10007,Apartment for rent,"25 Murray St APT 2J, New York, NY 10007","3 bds, 3.0 ba ,1548 sqft",USD,,"$9,000/mo",40.713932,New York,MULTI_FAMILY,NY,3,3.0,1548
,https://www.zillow.com/b/53-park-pl-new-york-ny-3Kh4/,-74.010152,,,,,False,,For Rent,"53 Park Pl, New York, NY"," bds,  ba , sqft",,,,40.714006,,,,,,
,https://www.zillow.com/b/30-park-pl-new-york-ny-3KkV/,-74.009033,,,,,False,,For Rent,"30 Park Pl, New York, NY"," bds,  ba , sqft",,,,40.712775,,,,,,
1915,https://www.zillow.com/homedetails/80-Warren-St-55-New-York-NY-10007/244853110_zpid/,-74.010263,FOR_RENT,,,,False,10007,Apartment for rent,"80 Warren St # 55, New York, NY 10007","1 bds, 2.0 ba ,70000 sqft",USD,,"$6,950/mo",40.715373,New York,MULTI_FAMILY,NY,1,2.0,70000
-1,https://www.zillow.com/homedetails/92-Chambers-St-APT-3F-New-York-NY-10007/2081552148_zpid/,-74.007505,FOR_RENT,,,,False,10007,Apartment for rent,"92 Chambers St APT 3F, New York, NY 10007","3 bds, 2.0 ba ,1450 sqft",USD,,"$8,200/mo",40.714507,New York,MULTI_FAMILY,NY,3,2.0,1450
-1,https://www.zillow.com/homedetails/49-Chambers-St-APT-8H-New-York-NY-10007/2081769441_zpid/,-74.005136,FOR_RENT,,,,False,10007,Apartment for rent,"49 Chambers St APT 8H, New York, NY 10007","1 bds, 2.0 ba ,1459 sqft",USD,,"$9,000/mo",40.714001,New York,MULTI_FAMILY,NY,1,2.0,1459
-1,https://www.zillow.com/homedetails/46-Warren-St-APT-2-New-York-NY-10007/2093720726_zpid/,-74.008726,FOR_RENT,,,,False,10007,Apartment for rent,"46 Warren St APT 2, New York, NY 10007","2 bds, 2.0 ba ,None sqft",USD,,"$8,500/mo",40.714773,New York,MULTI_FAMILY,NY,2,2.0,
-1,https://www.zillow.com/homedetails/234-E-4th-St-APT-19-New-York-NY-10009/2096205456_zpid/,-73.983147,FOR_RENT,,,,False,10009,Apartment for rent,"234 E 4th St APT 19, New York, NY 10009","3 bds, 1.0 ba ,None sqft",USD,,"$4,600/mo",40.723303,New York,MULTI_FAMILY,NY,3,1.0,
-1,https://www.zillow.com/homedetails/248-E-10th-St-2-New-York-NY-10009/2080932594_zpid/,-73.984114,FOR_RENT,,,,False,10009,Apartment for rent,"248 E 10th St # 2, New York, NY 10009","0 bds, 1.0 ba ,None sqft",USD,,"$1,800/mo",40.728512,New York,MULTI_FAMILY,NY,0,1.0,
,https://www.zillow.com/b/stuyvesant-town-new-york-ny-9hKzDy/,-73.980845,,,,,False,,Stuyvesant Town,"409 E 14th St, New York, NY"," bds,  ba , sqft",,,,40.731051,,,,,,
-1,https://www.zillow.com/homedetails/197-E-3rd-St-APT-3-New-York-NY-10009/2086430858_zpid/,-73.983206,FOR_RENT,,,,False,10009,Apartment for rent,"197 E 3rd St APT 3, New York, NY 10009","1 bds, 1.0 ba ,None sqft",USD,,"$2,999/mo",40.723014,New York,MULTI_FAMILY,NY,1,1.0,
-1,https://www.zillow.com/homedetails/269-E-10th-St-17-New-York-NY-10009/2085610897_zpid/,-73.983032,FOR_RENT,,,,False,10009,Apartment for rent,"269 E 10th St # 17, New York, NY 10009","2 bds, 1.0 ba ,None sqft",USD,,"$2,700/mo",40.728422,New York,MULTI_FAMILY,NY,2,1.0,
1930,https://www.zillow.com/homedetails/321-E-10th-St-APT-1E-New-York-NY-10009/2126994609_zpid/,-73.980848,FOR_RENT,,,,False,10009,Apartment for rent,"321 E 10th St APT 1E, New York, NY 10009","0 bds, 1.5 ba ,None sqft",USD,,"$6,495/mo",40.727484,New York,MULTI_FAMILY,NY,0,1.5,
-1,https://www.zillow.com/homedetails/280-E-2nd-St-910-New-York-NY-10009/2106288215_zpid/,-73.979939,FOR_RENT,,,,False,10009,Apartment for rent,"280 E 2nd St # 910, New York, NY 10009","0 bds, 1.0 ba ,None sqft",USD,,"$2,550/mo",40.720873,New York,MULTI_FAMILY,NY,0,1.0,
,https://www.zillow.com/b/224-avenue-b-new-york-ny-23nZ/,-73.97852,,,,,False,,For Rent,"224 Avenue B, New York, NY"," bds,  ba , sqft",,,,40.729198,,,,,,
1951,https://www.zillow.com/homedetails/153-Avenue-C-APT-2RN-New-York-NY-10009/2122550739_zpid/,-73.977998,FOR_RENT,,,,False,10009,Apartment for rent,"153 Avenue C APT 2RN, New York, NY 10009","1 bds, 1.0 ba ,None sqft",USD,,"$2,250/mo",40.725711,New York,MULTI_FAMILY,NY,1,1.0,
-1,https://www.zillow.com/homedetails/508-E-12th-St-APT-15-New-York-NY-10009/2101564279_zpid/,-73.980859,FOR_RENT,,,,False,10009,Apartment for rent,"508 E 12th St APT 15, New York, NY 10009","3 bds, 1.0 ba ,None sqft",USD,,"$4,500/mo",40.728639,New York,MULTI_FAMILY,NY,3,1.0,
-1,https://www.zillow.com/homedetails/211-Avenue-A-APT-3-New-York-NY-10009/2131436007_zpid/,-73.981041,FOR_RENT,,,,False,10009,Apartment for rent,"211 Avenue A APT 3, New York, NY 10009","1 bds, 1.0 ba ,700 sqft",USD,,"$2,875/mo",40.729976,New York,MULTI_FAMILY,NY,1,1.0,700
-1,https://www.zillow.com/homedetails/551-E-12th-St-APT-4G-New-York-NY-10009/2080948860_zpid/,-73.979121,FOR_RENT,,,,False,10009,Apartment for rent,"551 E 12th St APT 4G, New York, NY 10009","2 bds, 1.0 ba ,None sqft",USD,,"$3,995/mo",40.728273,New York,MULTI_FAMILY,NY,2,1.0,
-1,https://www.zillow.com/homedetails/115-Avenue-C-2-New-York-NY-10009/2080951832_zpid/,-73.978871,FOR_RENT,,,,False,10009,Apartment for rent,"115 Avenue C # 2, New York, NY 10009","2 bds, 2.0 ba ,None sqft",USD,,"$3,750/mo",40.724454,New York,MULTI_FAMILY,NY,2,2.0,
,https://www.zillow.com/b/107-saint-marks-pl-new-york-ny-3Pcd/,-73.984031,,,,,False,,For Rent,"107 Saint Marks Pl, New York, NY"," bds,  ba , sqft",,,,40.727294,,,,,,
-1,https://www.zillow.com/homedetails/504-E-12th-St-APT-17-New-York-NY-10009/2126803598_zpid/,-73.980977,FOR_RENT,,,,False,10009,Apartment for rent,"504 E 12th St APT 17, New York, NY 10009","2 bds, 1.0 ba ,None sqft",USD,,"$3,800/mo",40.728689,New York,MULTI_FAMILY,NY,2,1.0,
-1,https://www.zillow.com/homedetails/201-E-2nd-St-APT-5D-New-York-NY-10009/2113147770_zpid/,-73.983728,FOR_RENT,,,,False,10009,Apartment for rent,"201 E 2nd St APT 5D, New York, NY 10009","2 bds, 1.0 ba ,None sqft",USD,,"$3,600/mo",40.721984,New York,MULTI_FAMILY,NY,2,1.0,
,https://www.zillow.com/b/751-e-6th-st-new-york-ny-BLyzFm/,-73.977964,,,,,False,,For Rent,"751 E 6th St, New York, NY"," bds,  ba , sqft",,,,40.723108,,,,,,
-1,https://www.zillow.com/homedetails/242-E-3rd-St-APT-3-New-York-NY-10009/2122883302_zpid/,-73.98159,FOR_RENT,,,,False,10009,Apartment for rent,"242 E 3rd St APT 3, New York, NY 10009","2 bds, 1.0 ba ,None sqft",USD,,"$2,950/mo",40.721835,New York,MULTI_FAMILY,NY,2,1.0,
-1,https://www.zillow.com/homedetails/413-E-9th-St-APT-4A-New-York-NY-10009/2085534348_zpid/,-73.983994,FOR_RENT,,,,False,10009,Apartment for rent,"413 E 9th St APT 4A, New York, NY 10009","0 bds, 1.0 ba ,None sqft",USD,,"$2,800/mo",40.728054,New York,MULTI_FAMILY,NY,0,1.0,
-1,https://www.zillow.com/homedetails/24-Avenue-C-APT-2-B-New-York-NY-10009/2081085753_zpid/,-73.980602,FOR_RENT,,,,False,10009,Apartment for rent,"24 Avenue C APT 2-B, New York, NY 10009","1 bds, 1.0 ba ,None sqft",USD,,"$2,599/mo",40.721264,New York,MULTI_FAMILY,NY,1,1.0,
-1,https://www.zillow.com/homedetails/529-E-5th-St-APT-5-New-York-NY-10009/2086551828_zpid/,-73.982915,FOR_RENT,,,,False,10009,Apartment for rent,"529 E 5th St APT 5, New York, NY 10009","2 bds, 1.0 ba ,None sqft",USD,,"$2,878/mo",40.724476,New York,MULTI_FAMILY,NY,2,1.0,
-1,https://www.zillow.com/homedetails/526-E-11th-St-APT-18-New-York-NY-10009/2080986910_zpid/,-73.980678,FOR_RENT,,,,False,10009,Apartment for rent,"526 E 11th St APT 18, New York, NY 10009","1 bds, 1.0 ba ,None sqft",USD,,"$2,600/mo",40.727718,New York,MULTI_FAMILY,NY,1,1.0,
-1,https://www.zillow.com/homedetails/530-E-13th-St-APT-21B-New-York-NY-10009/2083311640_zpid/,-73.979544,FOR_RENT,,,,False,10009,Apartment for rent,"530 E 13th St APT 21B, New York, NY 10009","1 bds, 1.0 ba ,None sqft",USD,,"$2,275/mo",40.728922,New York,MULTI_FAMILY,NY,1,1.0,
-1,https://www.zillow.com/homedetails/96-Avenue-A-APT-1-New-York-NY-10009/2080989939_zpid/,-73.98391,FOR_RENT,,,,False,10009,Apartment for rent,"96 Avenue A APT 1, New York, NY 10009","0 bds, 1.0 ba ,None sqft",USD,,"$3,250/mo",40.725525,New York,MULTI_FAMILY,NY,0,1.0,
-1,https://www.zillow.com/homedetails/263-E-10th-St-APT-14-New-York-NY-10009/2097822267_zpid/,-73.983265,FOR_RENT,,,,False,10009,Apartment for rent,"263 E 10th St APT 14, New York, NY 10009","1 bds, 1.0 ba ,475 sqft",USD,,"$2,500/mo",40.728521,New York,MULTI_FAMILY,NY,1,1.0,475
-1,https://www.zillow.com/homedetails/620-E-11th-St-APT-1-New-York-NY-10009/2128615580_zpid/,-73.978697,FOR_RENT,,,,False,10009,Apartment for rent,"620 E 11th St APT 1, New York, NY 10009","1 bds, 1.0 ba ,650 sqft",USD,,"$2,395/mo",40.726905,New York,MULTI_FAMILY,NY,1,1.0,650
-1,https://www.zillow.com/homedetails/510-E-5th-St-APT-6-New-York-NY-10009/2115336638_zpid/,-73.983889,FOR_RENT,,,,False,10009,Apartment for rent,"510 E 5th St APT 6, New York, NY 10009","1 bds, 1.0 ba ,None sqft",USD,,"$2,650/mo",40.724415,New York,MULTI_FAMILY,NY,1,1.0,
-1,https://www.zillow.com/homedetails/192-E-3rd-St-APT-3B-New-York-NY-10009/2096482217_zpid/,-73.98364,FOR_RENT,,,,False,10009,Apartment for rent,"192 E 3rd St APT 3B, New York, NY 10009","1 bds, 1.0 ba ,None sqft",USD,,"$3,317/mo",40.7227,New York,MULTI_FAMILY,NY,1,1.0,
-1,https://www.zillow.com/homedetails/424-E-13th-St-A18-New-York-NY-10009/2080995690_zpid/,-73.982194,FOR_RENT,,,,False,10009,Apartment for rent,"424 E 13th St # A18, New York, NY 10009","2 bds, 1.0 ba ,None sqft",USD,,"$2,900/mo",40.730035,New York,MULTI_FAMILY,NY,2,1.0,
-1,https://www.zillow.com/homedetails/249-E-10th-St-APT-14A-New-York-NY-10009/2107222930_zpid/,-73.983817,FOR_RENT,,,,False,10009,Apartment for rent,"249 E 10th St APT 14A, New York, NY 10009","1 bds, 1.0 ba ,None sqft",USD,,"$2,675/mo",40.728755,New York,MULTI_FAMILY,NY,1,1.0,
,https://www.zillow.com/b/310-e-2nd-st-new-york-ny-4NqY/,-73.978855,,,,,False,,For Rent,"310 E 2nd St, New York, NY"," bds,  ba , sqft",,,,40.720353,,,,,,
-1,https://www.zillow.com/homedetails/249-E-2nd-St-APT-1C-New-York-NY-10009/2081001098_zpid/,-73.981707,FOR_RENT,,,,False,10009,Apartment for rent,"249 E 2nd St APT 1C, New York, NY 10009","0 bds, 1.0 ba ,None sqft",USD,,"$2,150/mo",40.721105,New York,MULTI_FAMILY,NY,0,1.0,
-1,https://www.zillow.com/homedetails/431-E-12th-St-APT-2C-New-York-NY-10009/2109715702_zpid/,-73.98194,FOR_RENT,,,,False,10009,Apartment for rent,"431 E 12th St APT 2C, New York, NY 10009","1 bds, 1.0 ba ,1600 sqft",USD,,"$6,750/mo",40.729611,New York,MULTI_FAMILY,NY,1,1.0,1600
-1,https://www.zillow.com/homedetails/197-E-4th-St-APT-1-New-York-NY-10009/2107241656_zpid/,-73.984064,FOR_RENT,,,,False,10009,Apartment for rent,"197 E 4th St APT 1, New York, NY 10009","4 bds, 1.5 ba ,3750 sqft",USD,,"$15,000/mo",40.724175,New York,MULTI_FAMILY,NY,4,1.5,3750
-1,https://www.zillow.com/homedetails/232-E-2nd-St-APT-B-New-York-NY-10009/2081004132_zpid/,-73.982168,FOR_RENT,,,,False,10009,Apartment for rent,"232 E 2nd St APT B, New York, NY 10009","0 bds, 1.0 ba ,None sqft",USD,,"$1,900/mo",40.721738,New York,MULTI_FAMILY,NY,0,1.0,
-1,https://www.zillow.com/homedetails/274-E-3rd-St-APT-2-New-York-NY-10009/2081857518_zpid/,-73.980458,FOR_RENT,,,,False,10009,Apartment for rent,"274 E 3rd St APT 2, New York, NY 10009","1 bds, 1.0 ba ,700 sqft",USD,,"$2,250/mo",40.721385,New York,MULTI_FAMILY,NY,1,1.0,700
-1,https://www.zillow.com/homedetails/123-Avenue-A-APT-2-New-York-NY-10009/2117391373_zpid/,-73.983433,FOR_RENT,,,,False,10009,Apartment for rent,"123 Avenue A APT 2, New York, NY 10009","1 bds, 1.0 ba ,1200 sqft",USD,,"$2,950/mo",40.726599,New York,MULTI_FAMILY,NY,1,1.0,1200
1920,https://www.zillow.com/homedetails/324-E-4th-St-3B-New-York-NY-10009/219639647_zpid/,-73.97937,FOR_RENT,,,,False,10009,Apartment for rent,"324 E 4th St # 3B, New York, NY 10009","1 bds, 1.0 ba ,620 sqft",USD,,"$4,450/mo",40.721704,New York,MULTI_FAMILY,NY,1,1.0,620
-1,https://www.zillow.com/homedetails/110-E-7th-St-APT-3-New-York-NY-10009/2125031041_zpid/,-73.984779,FOR_RENT,,,,False,10009,Apartment for rent,"110 E 7th St APT 3, New York, NY 10009","2 bds, 1.0 ba ,None sqft",USD,,"$2,585/mo",40.726342,New York,MULTI_FAMILY,NY,2,1.0,
-1,https://www.zillow.com/homedetails/25-Avenue-C-APT-1B-New-York-NY-10009/2119330362_zpid/,-73.981075,FOR_RENT,,,,False,10009,Apartment for rent,"25 Avenue C APT 1B, New York, NY 10009","2 bds, 1.0 ba ,None sqft",USD,,"$3,600/mo",40.721489,New York,MULTI_FAMILY,NY,2,1.0,
-1,https://www.zillow.com/homedetails/360-1st-Ave-APT-01A-New-York-NY-10010/2081259087_zpid/,-73.97903,FOR_RENT,,,,False,10010,Apartment for rent,"Peter Cooper Village, 1BCNS","1 bds, 1.0 ba ,944 sqft",USD,,"$3,977/mo",40.73577,New York,APARTMENT,NY,1,1.0,944
-1,https://www.zillow.com/homedetails/10-Waterside-Plz-WSC3-New-York-NY-10010/2083182636_zpid/,-73.973885,FOR_RENT,,,,False,10010,Apartment for rent,"10 Waterside Plz # WSC3, New York, NY 10010","2 bds, 2.0 ba ,1013 sqft",USD,,"$5,490/mo",40.737357,New York,MULTI_FAMILY,NY,2,2.0,1013
-1,https://www.zillow.com/homedetails/145-E-26th-St-APT-5B-New-York-NY-10010/2103721715_zpid/,-73.982518,FOR_RENT,,,,False,10010,Apartment for rent,"145 E 26th St APT 5B, New York, NY 10010","4 bds, 2.0 ba ,None sqft",USD,,"$7,495/mo",40.741296,New York,MULTI_FAMILY,NY,4,2.0,
,https://www.zillow.com/b/the-caroline-new-york-ny-5Xj4LN/,-73.991572,,,,,False,,The Caroline,"60 W 23rd St, New York, NY"," bds,  ba , sqft",,,,40.742229,,,,,,
,https://www.zillow.com/b/post-luminaria-apartments-new-york-ny-5XT4dr/,-73.979021,,,,,False,,Post Luminaria Apartments,"385 1st Ave, New York, NY"," bds,  ba , sqft",,,,40.736784,,,,,,
-1,https://www.zillow.com/homedetails/208-E-21st-St-APT-4A-New-York-NY-10010/2108046482_zpid/,-73.983675,FOR_RENT,,,,False,10010,Apartment for rent,"208 E 21st St APT 4A, New York, NY 10010","1 bds, 1.0 ba ,None sqft",USD,,"$2,950/mo",40.737142,New York,MULTI_FAMILY,NY,1,1.0,
,https://www.zillow.com/b/gramercy-starck-new-york-ny-5Xj5k6/,-73.979445,,,,,False,,Gramercy Starck,"340 E 23rd St, New York, NY"," bds,  ba , sqft",,,,40.736956,,,,,,
,https://www.zillow.com/b/77-w-24th-st-new-york-ny-5jHn/,-73.991455,,,,,False,,For Rent,"77 W 24th St, New York, NY"," bds,  ba , sqft",,,,40.743359,,,,,,
-1,https://www.zillow.com/homedetails/301-E-21st-St-APT-14N-New-York-NY-10010/2081161400_zpid/,-73.981314,FOR_RENT,,,,False,10010,Apartment for rent,"301 E 21st St APT 14N, New York, NY 10010","0 bds, 1.0 ba ,402 sqft",USD,,"$3,200/mo",40.736378,New York,MULTI_FAMILY,NY,0,1.0,402
,https://www.zillow.com/b/220-e-22nd-st-new-york-ny-3FSZ/,-73.982757,,,,,False,,For Rent,"220 E 22nd St, New York, NY"," bds,  ba , sqft",,,,40.737552,,,,,,
-1,https://www.zillow.com/homedetails/200-E-26th-St-APT-1D-New-York-NY-10010/2101602818_zpid/,-73.981702,FOR_RENT,,,,False,10010,Apartment for rent,"200 E 26th St APT 1D, New York, NY 10010","0 bds, 1.0 ba ,None sqft",USD,,"$2,595/mo",40.740716,New York,MULTI_FAMILY,NY,0,1.0,
,https://www.zillow.com/b/chelsea-landmark-new-york-ny-5Xj4LX/,-73.991219,,,,,False,,Chelsea Landmark,"55 W 25th St, New York, NY"," bds,  ba , sqft",,,,40.744339,,,,,,
-1,https://www.zillow.com/homedetails/219-E-26th-St-APT-9-New-York-NY-10010/2081561890_zpid/,-73.980686,FOR_RENT,,,,False,10010,Apartment for rent,"219 E 26th St APT 9, New York, NY 10010","1 bds, 1.0 ba ,None sqft",USD,,"$2,250/mo",40.740525,New York,MULTI_FAMILY,NY,1,1.0,
1961,https://www.zillow.com/homedetails/45-E-25th-St-APT-9B-New-York-NY-10010/31505022_zpid/,-73.986163,FOR_RENT,,,,False,10010,Apartment for rent,"45 E 25th St APT 9B, New York, NY 10010","1 bds, 2.0 ba ,1049 sqft",USD,,"$5,900/mo",40.742023,New York,MULTI_FAMILY,NY,1,2.0,1049
-1,https://www.zillow.com/homedetails/212-E-26th-St-1-New-York-NY-10010/2107782117_zpid/,-73.981111,FOR_RENT,,,,False,10010,Apartment for rent,"212 E 26th St # 1, New York, NY 10010","3 bds, 1.0 ba ,1000 sqft",USD,,"$4,300/mo",40.740217,New York,MULTI_FAMILY,NY,3,1.0,1000
,https://www.zillow.com/b/crossing-23-new-york-ny-6QGJ/,-73.985265,,,,,False,,CROSSING 23,"121 E 23rd St, New York, NY"," bds,  ba , sqft",,,,40.740052,,,,,,
,https://www.zillow.com/b/echelon-chelsea-new-york-ny-5jHW9Q/,-73.991653,,,,,False,,Echelon Chelsea,"37 W 21st St, New York, NY"," bds,  ba , sqft",,,,40.740898,,,,,,
-1,https://www.zillow.com/homedetails/222-E-21st-St-APT-3A-New-York-NY-10010/2124845823_zpid/,-73.983188,FOR_RENT,,,,False,10010,Apartment for rent,"222 E 21st St APT 3A, New York, NY 10010","1 bds, 1.0 ba ,None sqft",USD,,"$2,595/mo",40.736937,New York,MULTI_FAMILY,NY,1,1.0,
,https://www.zillow.com/b/20-waterside-plz-new-york-ny-8xgs/,-73.973712,,,,,False,,For Rent,"20 Waterside Plz, New York, NY"," bds,  ba , sqft",,,,40.737595,,,,,,
,https://www.zillow.com/b/gramercy-place-new-york-ny-27ts/,-73.987466,,,,,False,,Gramercy Place,"280 Park Ave S, New York, NY"," bds,  ba , sqft",,,,40.739539,,,,,,
,https://www.zillow.com/b/instrata-gramercy-new-york-ny-3DPf/,-73.983676,,,,,False,,Instrata Gramercy,"290 3rd Ave, New York, NY"," bds,  ba , sqft",,,,40.738579,,,,,,
,https://www.zillow.com/b/215-e-24th-st-new-york-ny-6grp/,-73.982268,,,,,False,,For Rent,"215 E 24th St, New York, NY"," bds,  ba , sqft",,,,40.73949,,,,,,
1961,https://www.zillow.com/homedetails/245-E-24th-St-APT-4B-New-York-NY-10010/111033028_zpid/,-73.981579,FOR_RENT,,,,False,10010,Apartment for rent,"245 E 24th St APT 4B, New York, NY 10010","0 bds, 1.0 ba ,550 sqft",USD,,"$2,950/mo",40.739199,New York,MULTI_FAMILY,NY,0,1.0,550
1980,https://www.zillow.com/homedetails/214-E-24th-St-APT-5A-New-York-NY-10010/2128186603_zpid/,-73.98214,FOR_RENT,,,,False,10010,Apartment for rent,"214 E 24th St APT 5A, New York, NY 10010","3 bds, 2.0 ba ,None sqft",USD,,"$5,395/mo",40.739031,New York,MULTI_FAMILY,NY,3,2.0,
,https://www.zillow.com/b/150-e-22nd-st-new-york-ny-5XnRJw/,-73.984308,,,,,False,,For Rent,"152 E 22nd St, New York, NY"," bds,  ba , sqft",,,,40.738205,,,,,,
-1,https://www.zillow.com/homedetails/213-E-25th-St-3-New-York-NY-10010/2095756972_zpid/,-73.981373,FOR_RENT,,,,False,10010,Apartment for rent,"213 E 25th St # 3, New York, NY 10010","0 bds, 1.0 ba ,500 sqft",USD,,"$2,000/mo",40.740007,New York,MULTI_FAMILY,NY,0,1.0,500
1900,https://www.zillow.com/homedetails/240-E-21st-St-APT-4RE-New-York-NY-10010/2111573642_zpid/,-73.982564,FOR_RENT,,,,False,10010,Apartment for rent,"240 E 21st St APT 4RE, New York, NY 10010","2 bds, 1.0 ba ,None sqft",USD,,"$3,450/mo",40.736674,New York,MULTI_FAMILY,NY,2,1.0,
1930,https://www.zillow.com/homedetails/48-Gramercy-Park-N-APT-3B-New-York-NY-10010/244761528_zpid/,-73.985199,FOR_RENT,,,,False,10010,Apartment for rent,"48 Gramercy Park N APT 3B, New York, NY 10010","1 bds, 1.0 ba ,7866 sqft",USD,,"$5,900/mo",40.738265,New York,MULTI_FAMILY,NY,1,1.0,7866
-1,https://www.zillow.com/homedetails/215-E-25th-St-APT-1B-New-York-NY-10010/2111585866_zpid/,-73.981296,FOR_RENT,,,,False,10010,Apartment for rent,"215 E 25th St APT 1B, New York, NY 10010","1 bds, 1.0 ba ,450 sqft",USD,,"$2,450/mo",40.739975,New York,MULTI_FAMILY,NY,1,1.0,450
-1,https://www.zillow.com/homedetails/27-E-22nd-St-B-New-York-NY-10010/2087051642_zpid/,-73.987956,FOR_RENT,,,,False,10010,Apartment for rent,"27 E 22nd St # B, New York, NY 10010","2 bds, 2.0 ba ,1600 sqft",USD,,"$11,500/mo",40.740219,New York,MULTI_FAMILY,NY,2,2.0,1600
-1,https://www.zillow.com/homedetails/385-1st-Ave-APT-9D-New-York-NY-10010/244701606_zpid/,-73.978759,FOR_RENT,,,,False,10010,Apartment for rent,"385 1st Ave APT 9D, New York, NY 10010","1 bds, 1.0 ba ,653 sqft",USD,,"$4,450/mo",40.736391,New York,MULTI_FAMILY,NY,1,1.0,653
,https://www.zillow.com/b/160-e-22nd-st-new-york-ny-6W3r/,-73.984611,,,,,False,,For Rent,"160 E 22nd St, New York, NY"," bds,  ba , sqft",,,,40.738429,,,,,,
,https://www.zillow.com/b/148-e-24th-st-new-york-ny-289c/,-73.983931,,,,,False,,For Rent,"148 E 24th St, New York, NY"," bds,  ba , sqft",,,,40.739804,,,,,,
,https://www.zillow.com/b/254-park-ave-s-new-york-ny-9PLgBG/,-73.987954,,,,,False,,For Rent,"254 Park Ave S, New York, NY"," bds,  ba , sqft",,,,40.738643,,,,,,
1979,https://www.zillow.com/homedetails/61-Lexington-Ave-New-York-NY-10010/31506545_zpid/,-73.983472,FOR_RENT,,,,False,10010,Apartment for rent,"61 Lexington Ave, New York, NY 10010","4 bds, 2.0 ba ,1250 sqft",USD,,"$6,995/mo",40.740829,New York,MULTI_FAMILY,NY,4,2.0,1250
,https://www.zillow.com/b/295-park-ave-s-new-york-ny-5Xn8Qz/,-73.986228,,,,,False,,For Rent,"295 Park Ave S, New York, NY"," bds,  ba , sqft",,,,40.739778,,,,,,
-1,https://www.zillow.com/homedetails/46-E-21st-St-5A-New-York-NY-10010/2081073991_zpid/,-73.98818,FOR_RENT,,,,False,10010,Apartment for rent,"46 E 21st St # 5A, New York, NY 10010","0 bds, 1.0 ba ,None sqft",USD,,"$2,300/mo",40.739044,New York,MULTI_FAMILY,NY,0,1.0,
-1,https://www.zillow.com/homedetails/210-E-22nd-St-APT-4J-New-York-NY-10010/2128186640_zpid/,-73.983135,FOR_RENT,,,,False,10010,Apartment for rent,"210 E 22nd St APT 4J, New York, NY 10010","0 bds, 1.0 ba ,651 sqft",USD,,"$2,975/mo",40.737717,New York,MULTI_FAMILY,NY,0,1.0,651
1920,https://www.zillow.com/homedetails/210-E-25th-St-APT-3FE-New-York-NY-10010/2128389540_zpid/,-73.98161,FOR_RENT,,,,False,10010,Apartment for rent,"210 E 25th St APT 3FE, New York, NY 10010","2 bds, 1.0 ba ,None sqft",USD,,"$3,700/mo",40.739616,New York,MULTI_FAMILY,NY,2,1.0,
,https://www.zillow.com/b/20-waterside-plz-new-york-ny-8xgs/,-73.973763,,,,,False,,For Rent,"20 Waterside Plz, New York, NY"," bds,  ba , sqft",,,,40.737014,,,,,,
-1,https://www.zillow.com/homedetails/66-W-10th-St-APT-13-New-York-NY-10011/2101782805_zpid/,-73.998319,FOR_RENT,,,,False,10011,Apartment for rent,"66 W 10th St APT 13, New York, NY 10011","0 bds, 1.0 ba ,None sqft",USD,,"$2,300/mo",40.734391,New York,MULTI_FAMILY,NY,0,1.0,
-1,https://www.zillow.com/homedetails/239-W-20th-St-APT-18-New-York-NY-10011/2126596152_zpid/,-73.998569,FOR_RENT,,,,False,10011,Apartment for rent,"239 W 20th St APT 18, New York, NY 10011","0 bds, 1.0 ba ,None sqft",USD,,"$2,400/mo",40.743088,New York,MULTI_FAMILY,NY,0,1.0,
,https://www.zillow.com/b/555w23-new-york-ny-4M8J/,-74.005882,,,,,False,,555W23,"555 W 23rd St, New York, NY"," bds,  ba , sqft",,,,40.748877,,,,,,
,"https://www.zillow.com/b/206-9th-Ave-New-York-NY/40.746036,-74.001252_ll/",-74.001252,,,,,False,,For Rent,"206 9th Ave, New York, NY"," bds,  ba , sqft",,,,40.746036,,,,,,
1928,https://www.zillow.com/homedetails/319-W-18th-St-APT-5C-New-York-NY-10011/72515158_zpid/,-74.001648,FOR_RENT,,,,False,10011,Apartment for rent,"319 W 18th St APT 5C, New York, NY 10011","0 bds, 1.0 ba ,None sqft",USD,,"$2,800/mo",40.742886,New York,MULTI_FAMILY,NY,0,1.0,
,https://www.zillow.com/b/ten23-manhattan-ny-5XSzbz/,-74.004686,,,,,False,,Ten23,"500 W 23rd St, New York, NY"," bds,  ba , sqft",,,,40.747542,,,,,,
,https://www.zillow.com/b/the-tate-new-york-ny-5XjKmr/,-74.005134,,,,,False,,The Tate,"535 W 23rd St, New York, NY"," bds,  ba , sqft",,,,40.748254,,,,,,
